,LATITUDE,LONGITUDE,TIME_EVENT,COUNTRY,YEAR,NEAREST_CITY,Population municipale 2020
0,45.567,5.933,2022-10-24 10:15:00,FR,2022,Barberaz,5167
1,45.596,5.875,2022-10-24 09:52:00,FR,2022,La Motte-Servolex,12377
2,49.583,1.358,2022-10-23 16:30:00,FR,2022,Buchy,2820
3,49.533,1.267,2022-10-23 16:25:00,FR,2022,Buchy,2820
4,49.521,1.251,2022-10-23 16:23:00,FR,2022,Isneauville,3601
5,49.498,1.25,2022-10-23 16:22:00,FR,2022,Isneauville,3601
6,49.492,1.216,2022-10-23 16:20:00,FR,2022,Isneauville,3601
7,49.467,1.183,2022-10-23 16:18:00,FR,2022,Darntal,9780
8,49.45,1.15,2022-10-23 16:15:00,FR,2022,Darntal,9780
9,50.093,2.731,2022-10-23 16:13:00,FR,2022,Albert,9814
10,50.08,2.708,2022-10-23 16:12:00,FR,2022,Albert,9814
11,50.001,2.65,2022-10-23 16:10:00,FR,2022,Albert,9814
12,50.081,2.63,2022-10-23 16:07:00,FR,2022,Albert,9814
13,50.079,2.605,2022-10-23 16:06:00,FR,2022,Albert,9814
14,50.06,2.567,2022-10-23 16:03:00,FR,2022,Albert,9814
15,50.073,2.532,2022-10-23 16:02:00,FR,2022,Albert,9814
16,49.887,2.345,2022-10-23 15:56:00,FR,2022,Rivery,3623
17,49.972,2.356,2022-10-23 15:51:00,FR,2022,Rivery,3623
18,49.952,2.36,2022-10-23 15:50:00,FR,2022,Rivery,3623
19,49.877,2.322,2022-10-23 15:47:00,FR,2022,Amiens,134167
20,49.847,2.265,2022-10-23 15:45:00,FR,2022,Saloul,4011
21,49.884,2.294,2022-10-23 15:45:00,FR,2022,Amiens,134167
22,49.87,2.241,2022-10-23 15:43:00,FR,2022,Saloul,4011
23,49.861,2.238,2022-10-23 15:43:00,FR,2022,Saloul,4011
24,49.502,1.586,2022-10-23 15:03:00,FR,2022,Gournay-en-Bray,6027
25,48.333,1.933,2022-10-23 14:47:00,FR,2022,Angerville,4374
26,49.232,1.243,2022-10-23 14:33:00,FR,2022,And,1304
27,49.193,1.24,2022-10-23 14:32:00,FR,2022,And,1304
28,48.5,0.483,2022-10-23 14:30:00,FR,2022,Mortagne-au-Perche,3758
29,49.161,1.246,2022-10-23 14:30:00,FR,2022,Clef Valle d'Eure,2482
30,49.163,1.217,2022-10-23 14:29:00,FR,2022,Heudreville-sur-Eure,1073
31,49.153,1.157,2022-10-23 14:27:00,FR,2022,Heudreville-sur-Eure,1073
32,49.027,1.151,2022-10-23 14:27:00,FR,2022,vreux,46869
33,49.067,1.1,2022-10-23 14:21:00,FR,2022,Aviron,1102
34,49.053,1.087,2022-10-23 14:18:00,FR,2022,Aviron,1102
35,49.024,1.034,2022-10-23 14:15:00,FR,2022,La Bonneville-sur-Iton,2047
36,48.992,1.049,2022-10-23 14:15:00,FR,2022,La Bonneville-sur-Iton,2047
37,48.891,0.951,2022-10-23 14:13:00,FR,2022,Conches-en-Ouche,4950
38,48.844,0.872,2022-10-23 14:06:00,FR,2022,Breteuil,4321
39,48.844,0.872,2022-10-23 14:06:00,FR,2022,Breteuil,4192
40,48.837,0.914,2022-10-23 14:03:00,FR,2022,Breteuil,4321
41,48.837,0.914,2022-10-23 14:03:00,FR,2022,Breteuil,4192
42,48.753,0.739,2022-10-23 13:50:00,FR,2022,Bourth,1188
43,48.735,0.694,2022-10-23 13:47:00,FR,2022,L'Aigle,7903
44,48.717,0.717,2022-10-23 13:47:00,FR,2022,Bourth,1188
45,48.65,0.683,2022-10-23 13:44:00,FR,2022,L'Aigle,7903
46,48.183,-0.892,2022-10-23 12:10:00,FR,2022,La Baconnire,1941
47,47.93,1.92,2022-10-20 15:45:00,FR,2022,Fleury-les-Aubrais,21104
48,47.948,1.886,2022-10-20 15:45:00,FR,2022,Saran,16598
49,47.883,1.936,2022-10-20 15:30:00,FR,2022,Saint-Jean-le-Blanc,9225
50,47.865,1.901,2022-10-20 15:25:00,FR,2022,Olivet,22503
51,47.835,1.933,2022-10-20 15:15:00,FR,2022,Olivet,22503
52,47.777,1.873,2022-10-20 15:15:00,FR,2022,La Fert-Saint-Aubin,7371
53,47.417,1.617,2022-10-20 14:46:00,FR,2022,Soings-en-Sologne,1618
54,47.344,1.583,2022-10-20 14:37:00,FR,2022,Selles-sur-Cher,4459
55,47.231,0.253,2022-10-20 14:13:00,FR,2022,Chinon,8063
56,46.933,-0.1,2022-10-20 13:35:00,FR,2022,Thouars,13917
57,46.905,-0.1,2022-10-20 13:32:00,FR,2022,Thouars,13917
58,46.917,-0.117,2022-10-20 13:32:00,FR,2022,Thouars,13917
59,46.944,-0.074,2022-10-20 13:30:00,FR,2022,Thouars,13917
60,46.883,-0.15,2022-10-20 13:28:00,FR,2022,Thouars,13917
61,43.667,7.15,2022-09-30 21:30:00,FR,2022,Cagnes-sur-Mer,52100
62,44.561,6.083,2022-09-14 20:35:00,FR,2022,Gap,40111
63,46.574,-1.341,2022-09-14 20:35:00,FR,2022,La Roche-sur-Yon,55213
64,43.7,1.517,2022-09-14 17:30:00,FR,2022,Lapeyrouse-Fossat,2919
65,43.683,1.317,2022-09-14 17:30:00,FR,2022,Aussonne,7265
66,43.767,2.0,2022-09-14 17:00:00,FR,2022,Labastide-Saint-Georges,1944
67,43.7,1.433,2022-09-14 16:30:00,FR,2022,Castelginest,10784
68,45.187,1.952,2022-09-13 14:35:00,FR,2022,Argentat-sur-Dordogne,2887
69,43.675,3.476,2022-09-07 20:13:00,FR,2022,Saint-Andr-de-Sangonis,6334
70,43.662,3.459,2022-09-07 20:10:00,FR,2022,Saint-Andr-de-Sangonis,6334
71,43.665,3.438,2022-09-07 20:10:00,FR,2022,Clermont-l'Hrault,9126
72,45.94,4.774,2022-09-07 18:52:00,FR,2022,Trvoux,6945
73,45.917,4.824,2022-09-07 18:50:00,FR,2022,Massieux,2709
74,46.881,2.16,2022-09-07 18:47:00,FR,2022,Lunery,1593
75,45.867,4.183,2022-09-07 14:50:00,FR,2022,Saint-Symphorien-de-Lay,1923
76,45.892,4.241,2022-09-07 14:50:00,FR,2022,Saint-Symphorien-de-Lay,1923
77,45.873,4.137,2022-09-07 14:45:00,FR,2022,Saint-Symphorien-de-Lay,1923
78,45.775,3.982,2022-09-07 14:45:00,FR,2022,Bon-sur-Lignon,3025
79,43.788,4.832,2022-09-07 12:00:00,FR,2022,Saint-Rmy-de-Provence,9692
80,44.133,2.933,2022-09-06 15:30:00,FR,2022,Saint-Georges-de-Luzenon,1606
81,44.333,2.967,2022-09-06 14:50:00,FR,2022,Svrac d'Aveyron,4079
82,44.719,3.241,2022-09-06 14:50:00,FR,2022,Saint-Chly-d'Apcher,4220
83,45.183,3.517,2022-09-06 12:42:00,FR,2022,Langeac,3451
84,48.888,1.462,2022-09-05 18:35:00,FR,2022,La Chausse-d'Ivry,1264
85,48.866,1.422,2022-09-05 18:35:00,FR,2022,zy-sur-Eure,3686
86,49.317,2.783,2022-09-05 18:22:00,FR,2022,Bthisy-Saint-Pierre,3154
87,43.5,1.15,2022-09-05 18:20:00,FR,2022,Sainte-Foy-de-Peyrolires,2101
88,48.3,-0.617,2022-09-05 18:20:00,FR,2022,Mayenne,12805
89,49.667,1.933,2022-09-05 18:16:00,FR,2022,Grandvilliers,2793
90,49.567,1.9,2022-09-05 18:05:00,FR,2022,Grandvilliers,2793
91,49.517,1.933,2022-09-05 18:01:00,FR,2022,Beauvais,56889
92,48.124,-1.213,2022-09-05 17:15:00,FR,2022,Vitr,18603
93,43.383,1.267,2022-09-05 17:10:00,FR,2022,Lavernose-Lacasse,3394
94,48.967,1.85,2022-09-05 17:00:00,FR,2022,Aubergenville,12082
95,43.397,1.262,2022-09-05 17:00:00,FR,2022,Lavernose-Lacasse,3394
96,48.95,1.817,2022-09-05 16:59:00,FR,2022,pne,6625
97,43.467,1.35,2022-09-05 16:50:00,FR,2022,Pins-Justaret,4335
98,43.383,1.183,2022-09-05 16:47:00,FR,2022,Longages,3213
99,43.422,1.27,2022-09-05 16:45:00,FR,2022,Lherm,3804
100,43.433,1.233,2022-09-05 16:45:00,FR,2022,Lherm,3804
101,48.75,1.833,2022-09-05 16:35:00,FR,2022,Coignires,4375
102,43.417,1.117,2022-09-05 16:35:00,FR,2022,Rieumes,3659
103,43.433,1.067,2022-09-05 16:31:00,FR,2022,Rieumes,3659
104,43.433,1.05,2022-09-05 16:30:00,FR,2022,Rieumes,3659
105,48.7,1.85,2022-09-05 16:28:00,FR,2022,Rambouillet,27043
106,48.65,1.833,2022-09-05 16:20:00,FR,2022,Rambouillet,27043
107,43.467,0.983,2022-09-05 16:15:00,FR,2022,Samatan,2380
108,43.439,0.991,2022-09-05 16:15:00,FR,2022,Samatan,2380
109,43.45,0.967,2022-09-05 16:10:00,FR,2022,Samatan,2380
110,43.433,0.95,2022-09-05 16:10:00,FR,2022,Samatan,2380
111,43.417,0.983,2022-09-05 16:10:00,FR,2022,Samatan,2380
112,48.45,1.75,2022-09-05 16:07:00,FR,2022,Aunay-sous-Auneau,1565
113,48.517,1.761,2022-09-05 16:05:00,FR,2022,Auneau-Bleury-Saint-Symphorien,6230
114,48.417,1.733,2022-09-05 16:00:00,FR,2022,Aunay-sous-Auneau,1565
115,48.45,1.767,2022-09-05 16:00:00,FR,2022,Aunay-sous-Auneau,1565
116,48.383,1.817,2022-09-05 15:50:00,FR,2022,Aunay-sous-Auneau,1565
117,48.35,1.767,2022-09-05 15:48:00,FR,2022,Aunay-sous-Auneau,1565
118,48.417,3.383,2022-09-05 15:48:00,FR,2022,Tranel,1036
119,43.498,0.951,2022-09-05 15:47:00,FR,2022,Samatan,2380
120,43.5,0.933,2022-09-05 15:45:00,FR,2022,Samatan,2380
121,43.503,0.939,2022-09-05 15:45:00,FR,2022,Samatan,2380
122,48.417,3.35,2022-09-05 15:45:00,FR,2022,Tranel,1036
123,43.517,0.983,2022-09-05 15:45:00,FR,2022,Samatan,2380
124,48.4,3.3,2022-09-05 15:41:00,FR,2022,Tranel,1036
125,48.221,1.808,2022-09-05 15:40:00,FR,2022,Janville-en-Beauce,2541
126,48.417,3.267,2022-09-05 15:38:00,FR,2022,Tranel,1036
127,48.2,1.8,2022-09-05 15:35:00,FR,2022,Janville-en-Beauce,2541
128,48.417,3.233,2022-09-05 15:35:00,FR,2022,Villeneuve-la-Guyard,3458
129,48.183,1.733,2022-09-05 15:30:00,FR,2022,ole-en-Beauce,1244
130,48.4,3.183,2022-09-05 15:29:00,FR,2022,Villeneuve-la-Guyard,3458
131,48.083,1.75,2022-09-05 15:18:00,FR,2022,Patay,2270
132,48.017,1.75,2022-09-05 15:11:00,FR,2022,Patay,2270
133,48.0,1.7,2022-09-05 15:10:00,FR,2022,Patay,2270
134,47.964,1.695,2022-09-05 15:05:00,FR,2022,Patay,2270
135,47.9,1.7,2022-09-05 14:55:00,FR,2022,Saint-Ay,3607
136,47.817,1.667,2022-09-05 14:45:00,FR,2022,Meung-sur-Loire,6567
137,47.833,1.7,2022-09-05 14:45:00,FR,2022,Meung-sur-Loire,6567
138,46.958,2.251,2022-09-05 14:30:00,FR,2022,Lunery,1593
139,46.883,2.083,2022-09-05 14:08:00,FR,2022,Issoudun,11314
140,42.967,1.6,2022-09-02 22:00:00,FR,2022,Foix,9515
141,42.983,1.6,2022-09-02 22:00:00,FR,2022,Foix,9515
142,43.016,1.499,2022-09-02 21:45:00,FR,2022,Serres-sur-Arget,678
143,44.55,3.283,2022-09-02 19:10:00,FR,2022,Marvejols,4713
144,44.59,3.404,2022-09-02 19:10:00,FR,2022,Mende,12336
145,45.85,5.033,2022-09-02 17:30:00,FR,2022,La Boisse,3335
146,45.833,5.0,2022-09-02 17:28:00,FR,2022,Beynost,4829
147,43.567,2.96,2022-09-02 15:50:00,FR,2022,Lamalou-les-Bains,2483
148,43.32,6.29,2022-09-02 14:33:00,FR,2022,Pignans,4658
149,43.42,6.069,2022-09-02 14:05:00,FR,2022,Brignoles,17652
150,43.438,6.069,2022-09-02 14:00:00,FR,2022,Le Val,4287
151,43.473,5.955,2022-09-02 13:45:00,FR,2022,Tourves,5101
152,43.67,5.851,2022-09-02 12:45:00,FR,2022,Ginasservis,1930
153,43.634,4.196,2022-09-02 12:40:00,FR,2022,Marsillargues,6395
154,43.993,4.451,2022-09-02 12:00:00,FR,2022,Uzs,8390
155,43.79,4.229,2022-09-02 11:35:00,FR,2022,Nages-et-Solorgues,2021
156,43.785,4.195,2022-09-02 11:30:00,FR,2022,Calvisson,5914
157,43.826,4.221,2022-09-02 11:30:00,FR,2022,Clarensac,4190
158,43.967,3.367,2022-09-02 09:50:00,FR,2022,La Cavalerie,2188
159,43.39,6.728,2022-09-02 09:30:00,FR,2022,Roquebrune-sur-Argens,14335
160,44.062,2.855,2022-09-02 08:50:00,FR,2022,Saint-Rome-de-Tarn,889
161,43.759,4.081,2022-08-30 16:02:00,FR,2022,Sommires,5053
162,43.781,4.085,2022-08-30 16:00:00,FR,2022,Sommires,5053
163,43.733,3.983,2022-08-30 16:00:00,FR,2022,Saint-Drzry,2839
164,43.726,3.98,2022-08-30 16:00:00,FR,2022,Saint-Drzry,2839
165,43.735,4.001,2022-08-30 16:00:00,FR,2022,Beaulieu,2176
166,43.771,4.022,2022-08-30 15:59:00,FR,2022,Beaulieu,2176
167,43.783,4.033,2022-08-30 15:58:00,FR,2022,Sommires,5053
168,43.771,3.956,2022-08-30 15:55:00,FR,2022,Saint-Drzry,2839
169,45.383,4.3,2022-08-30 15:30:00,FR,2022,Firminy,16953
170,43.83,4.027,2022-08-30 14:25:00,FR,2022,Sommires,5053
171,43.843,4.031,2022-08-30 14:25:00,FR,2022,Sommires,5053
172,43.91,4.002,2022-08-30 13:50:00,FR,2022,Quissac,3333
173,44.399,4.289,2022-08-30 13:15:00,FR,2022,Grospierres,911
174,43.412,6.052,2022-08-27 17:20:00,FR,2022,Brignoles,17652
175,47.9,7.35,2022-08-26 17:00:00,FR,2022,Ensisheim,7475
176,47.087,6.06,2022-08-17 15:32:00,FR,2022,Ornans,4422
177,47.017,6.117,2022-08-17 15:06:00,FR,2022,Levier,2269
178,47.0,6.067,2022-08-17 15:03:00,FR,2022,Levier,2269
179,46.95,6.133,2022-08-17 14:55:00,FR,2022,Levier,2269
180,46.283,2.833,2022-08-17 14:00:00,FR,2022,Colombier,323
181,45.667,4.85,2022-08-17 13:30:00,FR,2022,Feyzin,9926
182,43.506,-1.467,2022-08-17 13:30:00,FR,2022,Bayonne,52006
183,45.633,4.782,2022-08-17 13:30:00,FR,2022,Millery,4313
184,45.633,4.867,2022-08-17 13:27:00,FR,2022,Saint-Symphorien-d'Ozon,5850
185,45.617,4.667,2022-08-17 13:16:00,FR,2022,Beauvallon,4074
186,47.283,6.867,2022-08-17 13:10:00,FR,2022,Mache,4259
187,47.302,6.839,2022-08-17 13:09:00,FR,2022,Mache,4259
188,45.555,4.533,2022-08-17 13:05:00,FR,2022,Genilac,3866
189,47.217,6.817,2022-08-17 13:04:00,FR,2022,Charquemont,2791
190,47.25,6.8,2022-08-17 13:03:00,FR,2022,Mache,4259
191,47.237,6.812,2022-08-17 13:03:00,FR,2022,Mache,4259
192,47.235,6.792,2022-08-17 13:03:00,FR,2022,Mache,4259
193,45.55,4.483,2022-08-17 13:00:00,FR,2022,Saint-Christo-en-Jarez,1909
194,47.264,6.783,2022-08-17 13:00:00,FR,2022,Mache,4259
195,47.254,6.768,2022-08-17 12:58:00,FR,2022,Mache,4259
196,47.2,6.75,2022-08-17 12:56:00,FR,2022,Le Russey,2446
197,45.522,4.373,2022-08-17 12:55:00,FR,2022,L'trat,2702
198,47.194,6.749,2022-08-17 12:55:00,FR,2022,Le Russey,2446
199,47.22,6.767,2022-08-17 12:55:00,FR,2022,Mache,4259
200,45.483,4.45,2022-08-17 12:50:00,FR,2022,Sorbiers,8009
201,45.474,4.382,2022-08-17 12:50:00,FR,2022,Saint-Priest-en-Jarez,6088
202,47.2,6.7,2022-08-17 12:46:00,FR,2022,Le Russey,2446
203,45.483,4.383,2022-08-17 12:45:00,FR,2022,Saint-Priest-en-Jarez,6088
204,47.279,6.766,2022-08-17 12:45:00,FR,2022,Mache,4259
205,47.167,6.733,2022-08-17 12:44:00,FR,2022,Le Russey,2446
206,45.467,4.35,2022-08-17 12:40:00,FR,2022,Villars,7861
207,47.0,6.55,2022-08-17 12:34:00,FR,2022,Morteau,6851
208,45.4,4.183,2022-08-17 12:25:00,FR,2022,Aurec-sur-Loire,6166
209,45.433,4.167,2022-08-17 12:20:00,FR,2022,Saint-Marcellin-en-Forez,5027
210,46.9,6.367,2022-08-17 12:09:00,FR,2022,Pontarlier,17738
211,46.883,6.383,2022-08-17 12:09:00,FR,2022,Pontarlier,17738
212,45.367,4.117,2022-08-17 12:03:00,FR,2022,Aurec-sur-Loire,6166
213,43.683,4.133,2022-08-17 12:00:00,FR,2022,Lunel,26356
214,45.34,3.955,2022-08-17 11:45:00,FR,2022,Beauzac,2986
215,43.833,4.567,2022-08-17 11:45:00,FR,2022,Jonquires-Saint-Vincent,3811
216,43.75,4.511,2022-08-17 11:40:00,FR,2022,Bellegarde,7550
217,43.567,4.083,2022-08-17 11:35:00,FR,2022,La Grande-Motte,8638
218,45.3,3.883,2022-08-17 11:34:00,FR,2022,Vorey,1450
219,45.267,3.833,2022-08-17 11:30:00,FR,2022,Vorey,1450
220,44.572,3.332,2022-08-17 11:30:00,FR,2022,Marvejols,4713
221,43.117,6.117,2022-08-17 06:30:00,FR,2022,Hyres,54615
222,43.038,6.132,2022-08-17 05:12:00,FR,2022,Carqueiranne,9462
223,43.513,4.982,2022-08-17 01:00:00,FR,2022,Istres,44438
224,43.567,4.191,2022-08-16 22:29:00,FR,2022,Aigues-Mortes,8664
225,43.967,0.367,2022-08-16 21:30:00,FR,2022,Condom,6478
226,43.367,3.043,2022-08-16 18:00:00,FR,2022,Puisserguier,3026
227,43.354,2.746,2022-08-16 16:50:00,FR,2022,Ppieux,1087
228,46.683,-0.1,2022-08-16 16:30:00,FR,2022,Boivre-la-Valle,3079
229,43.403,2.538,2022-08-16 16:22:00,FR,2022,Caunes-Minervois,1601
230,43.4,2.483,2022-08-16 16:20:00,FR,2022,Caunes-Minervois,1601
231,43.412,6.081,2022-08-14 16:47:00,FR,2022,Brignoles,17652
232,43.471,5.954,2022-08-14 16:37:00,FR,2022,Tourves,5101
233,44.121,5.03,2022-08-14 14:45:00,FR,2022,Sarrians,6030
234,44.053,4.779,2022-08-14 14:23:00,FR,2022,Roquemaure,5531
235,44.162,4.084,2022-08-14 13:05:00,FR,2022,Saint-Martin-de-Valgalgues,4592
236,44.157,4.054,2022-08-14 13:03:00,FR,2022,Cendras,1652
237,44.283,2.733,2022-08-14 11:35:00,FR,2022,Pont-de-Salars,1632
238,44.345,2.571,2022-08-14 11:15:00,FR,2022,Rodez,24397
239,44.167,4.617,2022-08-14 07:30:00,FR,2022,Bagnols-sur-Cze,18072
240,45.033,3.083,2022-08-05 15:30:00,FR,2022,Saint-Flour,6451
241,46.069,6.318,2022-08-05 15:10:00,FR,2022,La Roche-sur-Foron,11155
242,44.85,3.667,2022-08-05 13:30:00,FR,2022,Vals-prs-le-Puy,3421
243,45.113,3.273,2022-08-05 13:25:00,FR,2022,Massiac,1801
244,44.788,3.771,2022-08-05 12:20:00,FR,2022,Lavillatte,43
245,44.75,3.783,2022-08-05 12:00:00,FR,2022,Lavillatte,43
246,46.567,3.35,2022-08-04 17:58:00,FR,2022,Moulins,78
247,46.567,3.35,2022-08-04 17:58:00,FR,2022,Moulins,19444
248,46.4,3.317,2022-08-04 17:26:00,FR,2022,Montay-sur-Allier,542
249,42.583,2.117,2022-08-04 13:45:00,FR,2022,Artigues,35
250,48.041,7.544,2022-07-20 16:30:00,FR,2022,Horbourg-Wihr,6244
251,48.467,7.483,2022-07-20 16:13:00,FR,2022,Obernai,12015
252,48.456,7.424,2022-07-20 16:07:00,FR,2022,BÏrsch,2430
253,48.383,7.471,2022-07-20 16:05:00,FR,2022,Barr,7174
254,48.359,7.464,2022-07-20 16:05:00,FR,2022,Ebersheim,2287
255,48.477,7.44,2022-07-20 16:02:00,FR,2022,Obernai,12015
256,48.372,7.404,2022-07-20 16:00:00,FR,2022,Andlau,1763
257,48.447,7.423,2022-07-20 16:00:00,FR,2022,Barr,7174
258,48.367,7.383,2022-07-20 15:59:00,FR,2022,Andlau,1763
259,48.323,7.426,2022-07-20 15:58:00,FR,2022,Ebersheim,2287
260,48.333,7.35,2022-07-20 15:48:00,FR,2022,Andlau,1763
261,48.344,7.371,2022-07-20 15:48:00,FR,2022,Andlau,1763
262,48.331,7.361,2022-07-20 15:47:00,FR,2022,Andlau,1763
263,48.317,7.35,2022-07-20 15:46:00,FR,2022,Andlau,1763
264,48.343,7.305,2022-07-20 15:43:00,FR,2022,Andlau,1763
265,47.61,7.066,2022-07-20 15:25:00,FR,2022,Grandvillars,2995
266,47.662,6.316,2022-07-20 15:22:00,FR,2022,Vesoul,14866
267,47.594,6.998,2022-07-20 15:15:00,FR,2022,Grandvillars,2995
268,47.589,6.416,2022-07-20 15:12:00,FR,2022,Lure,7960
269,47.607,7.002,2022-07-20 15:12:00,FR,2022,Grandvillars,2995
270,47.525,7.001,2022-07-20 15:10:00,FR,2022,Grandvillars,2995
271,47.559,7.01,2022-07-20 15:10:00,FR,2022,Grandvillars,2995
272,47.549,6.288,2022-07-20 15:08:00,FR,2022,Vesoul,14866
273,47.606,6.97,2022-07-20 15:07:00,FR,2022,Grandvillars,2995
274,47.538,6.976,2022-07-20 15:07:00,FR,2022,Grandvillars,2995
275,47.5,7.0,2022-07-20 15:07:00,FR,2022,Grandvillars,2995
276,47.535,6.374,2022-07-20 15:05:00,FR,2022,Lure,7960
277,47.491,6.292,2022-07-20 15:03:00,FR,2022,Baume-les-Dames,4984
278,47.501,6.314,2022-07-20 15:03:00,FR,2022,Baume-les-Dames,4984
279,47.545,6.933,2022-07-20 15:02:00,FR,2022,Grandvillars,2995
280,47.511,6.333,2022-07-20 15:02:00,FR,2022,Baume-les-Dames,4984
281,47.481,6.285,2022-07-20 15:00:00,FR,2022,Baume-les-Dames,4984
282,47.497,6.941,2022-07-20 15:00:00,FR,2022,Beaucourt,5016
283,47.449,6.26,2022-07-20 14:58:00,FR,2022,Baume-les-Dames,4984
284,47.531,6.921,2022-07-20 14:58:00,FR,2022,Fesches-le-Chtel,2163
285,47.485,6.925,2022-07-20 14:57:00,FR,2022,Beaucourt,5016
286,47.5,6.917,2022-07-20 14:56:00,FR,2022,Beaucourt,5016
287,47.524,6.908,2022-07-20 14:56:00,FR,2022,Fesches-le-Chtel,2163
288,47.467,6.267,2022-07-20 14:55:00,FR,2022,Baume-les-Dames,4984
289,47.244,6.882,2022-07-20 14:55:00,FR,2022,Charquemont,2791
290,47.478,6.894,2022-07-20 14:55:00,FR,2022,Beaucourt,5016
291,47.466,6.903,2022-07-20 14:55:00,FR,2022,Beaucourt,5016
292,47.534,6.897,2022-07-20 14:55:00,FR,2022,Fesches-le-Chtel,2163
293,47.506,6.865,2022-07-20 14:50:00,FR,2022,tupes,3721
294,47.409,6.269,2022-07-20 14:50:00,FR,2022,Baume-les-Dames,4984
295,47.461,6.861,2022-07-20 14:50:00,FR,2022,Seloncourt,5756
296,47.168,6.825,2022-07-20 14:50:00,FR,2022,Charquemont,2791
297,47.48,6.847,2022-07-20 14:50:00,FR,2022,Audincourt,13542
298,47.25,6.8,2022-07-20 14:48:00,FR,2022,Mache,4259
299,47.22,6.767,2022-07-20 14:45:00,FR,2022,Mache,4259
300,47.452,6.806,2022-07-20 14:45:00,FR,2022,Valentigney,10897
301,47.139,6.794,2022-07-20 14:45:00,FR,2022,Le Russey,2446
302,47.148,6.764,2022-07-20 14:45:00,FR,2022,Le Russey,2446
303,47.157,6.768,2022-07-20 14:45:00,FR,2022,Le Russey,2446
304,47.165,6.742,2022-07-20 14:45:00,FR,2022,Le Russey,2446
305,47.169,6.749,2022-07-20 14:45:00,FR,2022,Le Russey,2446
306,47.149,6.746,2022-07-20 14:44:00,FR,2022,Le Russey,2446
307,47.343,6.308,2022-07-20 14:41:00,FR,2022,Baume-les-Dames,4984
308,47.351,6.361,2022-07-20 14:40:00,FR,2022,Baume-les-Dames,4984
309,47.339,6.324,2022-07-20 14:40:00,FR,2022,Baume-les-Dames,4984
310,47.332,6.306,2022-07-20 14:39:00,FR,2022,Baume-les-Dames,4984
311,47.2,6.75,2022-07-20 14:37:00,FR,2022,Le Russey,2446
312,47.105,6.728,2022-07-20 14:36:00,FR,2022,Villers-le-Lac,5207
313,47.117,6.717,2022-07-20 14:35:00,FR,2022,Le Russey,2446
314,47.167,6.733,2022-07-20 14:35:00,FR,2022,Le Russey,2446
315,47.198,6.707,2022-07-20 14:35:00,FR,2022,Le Russey,2446
316,47.168,6.657,2022-07-20 14:34:00,FR,2022,Le Russey,2446
317,47.069,6.688,2022-07-20 14:34:00,FR,2022,Villers-le-Lac,5207
318,47.136,6.676,2022-07-20 14:33:00,FR,2022,Le Russey,2446
319,47.128,6.694,2022-07-20 14:33:00,FR,2022,Le Russey,2446
320,47.119,6.634,2022-07-20 14:32:00,FR,2022,Les Fins,3157
321,47.108,6.683,2022-07-20 14:32:00,FR,2022,Villers-le-Lac,5207
322,47.1,6.667,2022-07-20 14:31:00,FR,2022,Villers-le-Lac,5207
323,47.067,6.667,2022-07-20 14:30:00,FR,2022,Villers-le-Lac,5207
324,47.083,6.633,2022-07-20 14:30:00,FR,2022,Les Fins,3157
325,47.054,6.653,2022-07-20 14:30:00,FR,2022,Les Fins,3157
326,46.832,6.408,2022-07-20 14:15:00,FR,2022,Jougne,1850
327,47.065,6.216,2022-07-20 14:05:00,FR,2022,Ornans,4422
328,46.923,6.306,2022-07-20 13:47:00,FR,2022,Doubs,3235
329,46.951,6.259,2022-07-20 13:45:00,FR,2022,Doubs,3235
330,46.961,6.269,2022-07-20 13:45:00,FR,2022,Doubs,3235
331,46.893,6.224,2022-07-20 13:32:00,FR,2022,Frasne,1933
332,42.978,-0.744,2022-07-19 18:50:00,FR,2022,Oloron-Sainte-Marie,10653
333,46.35,6.618,2022-07-04 17:25:00,FR,2022,Saint-Paul-en-Chablais,2522
334,46.35,6.567,2022-07-04 17:20:00,FR,2022,Marin,1885
335,46.35,6.517,2022-07-04 17:15:00,FR,2022,Marin,1885
336,46.383,6.55,2022-07-04 17:14:00,FR,2022,Marin,1885
337,46.361,6.496,2022-07-04 17:11:00,FR,2022,Thonon-les-Bains,36626
338,46.371,6.483,2022-07-04 17:03:00,FR,2022,Thonon-les-Bains,36626
339,46.355,6.427,2022-07-04 17:02:00,FR,2022,Thonon-les-Bains,36626
340,46.363,6.451,2022-07-04 17:02:00,FR,2022,Thonon-les-Bains,36626
341,45.518,4.635,2022-07-03 15:59:00,FR,2022,Rive-de-Gier,15086
342,45.5,4.617,2022-07-03 15:58:00,FR,2022,Rive-de-Gier,15086
343,45.5,4.6,2022-07-03 15:54:00,FR,2022,Lorette,4746
344,45.494,4.579,2022-07-03 15:52:00,FR,2022,Lorette,4746
345,45.483,4.583,2022-07-03 15:49:00,FR,2022,Saint-Paul-en-Jarez,4793
346,45.285,4.395,2022-07-03 15:19:00,FR,2022,Le Chambon-Feugerolles,11857
347,45.421,4.559,2022-07-03 15:19:00,FR,2022,Saint-Paul-en-Jarez,4793
348,45.033,4.067,2022-07-03 14:32:00,FR,2022,Saint-Julien-Chapteuil,2010
349,45.0,4.0,2022-07-03 14:27:00,FR,2022,Lantriac,1929
350,45.767,5.0,2022-06-30 15:03:00,FR,2022,Meyzieu,35134
351,45.746,4.971,2022-06-30 15:00:00,FR,2022,Chassieu,10844
352,47.896,6.985,2022-06-30 15:00:00,FR,2022,Thann,7784
353,45.733,5.0,2022-06-30 14:59:00,FR,2022,Chassieu,10844
354,47.884,6.956,2022-06-30 14:59:00,FR,2022,Masevaux-Niederbruck,3682
355,45.7,4.95,2022-06-30 14:55:00,FR,2022,Saint-Priest,1320
356,45.7,4.95,2022-06-30 14:55:00,FR,2022,Saint-Priest,48318
357,47.807,6.906,2022-06-30 14:50:00,FR,2022,Masevaux-Niederbruck,3682
358,45.633,4.85,2022-06-30 14:50:00,FR,2022,Solaize,3034
359,45.683,4.883,2022-06-30 14:49:00,FR,2022,Feyzin,9926
360,45.667,4.9,2022-06-30 14:48:00,FR,2022,Corbas,11161
361,45.688,4.881,2022-06-30 14:48:00,FR,2022,Vnissieux,66765
362,45.633,4.833,2022-06-30 14:45:00,FR,2022,Srzin-du-Rhne,2906
363,45.607,4.806,2022-06-30 14:45:00,FR,2022,Grigny,9739
364,45.607,4.806,2022-06-30 14:45:00,FR,2022,Grigny,27571
365,45.633,4.867,2022-06-30 14:45:00,FR,2022,Saint-Symphorien-d'Ozon,5850
366,45.638,4.842,2022-06-30 14:45:00,FR,2022,Solaize,3034
367,45.617,4.817,2022-06-30 14:44:00,FR,2022,Srzin-du-Rhne,2906
368,45.608,4.792,2022-06-30 14:42:00,FR,2022,Grigny,9739
369,45.608,4.792,2022-06-30 14:42:00,FR,2022,Grigny,27571
370,45.6,4.733,2022-06-30 14:41:00,FR,2022,Beauvallon,4074
371,47.75,6.833,2022-06-30 14:40:00,FR,2022,Belfort,45458
372,45.583,4.767,2022-06-30 14:40:00,FR,2022,Givors,20672
373,45.583,4.667,2022-06-30 14:35:00,FR,2022,Beauvallon,4074
374,46.478,5.689,2022-06-30 14:32:00,FR,2022,Clairvaux-les-Lacs,1427
375,46.517,5.617,2022-06-30 14:25:00,FR,2022,Clairvaux-les-Lacs,1427
376,47.583,6.75,2022-06-30 14:25:00,FR,2022,Hricourt,10592
377,46.895,6.449,2022-06-30 14:15:00,FR,2022,Pontarlier,17738
378,45.467,4.5,2022-06-30 14:15:00,FR,2022,Saint-Chamond,35309
379,47.594,7.581,2022-06-30 14:00:00,FR,2022,Huningue,7283
380,47.606,7.57,2022-06-30 14:00:00,FR,2022,Village-Neuf,4486
381,46.333,5.283,2022-06-30 13:58:00,FR,2022,Bny,759
382,47.586,7.562,2022-06-30 13:55:00,FR,2022,Huningue,7283
383,47.35,6.8,2022-06-30 13:52:00,FR,2022,Pont-de-Roide-Vermondans,4088
384,47.394,6.763,2022-06-30 13:50:00,FR,2022,Pont-de-Roide-Vermondans,4088
385,47.576,7.518,2022-06-30 13:50:00,FR,2022,Saint-Louis,22835
386,47.576,7.518,2022-06-30 13:50:00,FR,2022,Saint-Louis,53744
387,47.601,7.497,2022-06-30 13:50:00,FR,2022,Saint-Louis,22835
388,47.601,7.497,2022-06-30 13:50:00,FR,2022,Saint-Louis,53744
389,46.283,5.167,2022-06-30 13:46:00,FR,2022,Attignat,3299
390,47.566,7.445,2022-06-30 13:42:00,FR,2022,Saint-Louis,22835
391,47.566,7.445,2022-06-30 13:42:00,FR,2022,Saint-Louis,53744
392,46.183,5.117,2022-06-30 13:38:00,FR,2022,Montracol,1017
393,46.217,5.083,2022-06-30 13:36:00,FR,2022,Vandeins,714
394,46.167,5.083,2022-06-30 13:35:00,FR,2022,Condeissiat,817
395,45.25,4.1,2022-06-30 13:31:00,FR,2022,Beauzac,2986
396,47.506,7.273,2022-06-30 13:25:00,FR,2022,Altkirch,5658
397,47.503,7.255,2022-06-30 13:24:00,FR,2022,Altkirch,5658
398,47.487,7.241,2022-06-30 13:23:00,FR,2022,Altkirch,5658
399,47.5,7.117,2022-06-30 13:15:00,FR,2022,Grandvillars,2995
400,47.5,7.0,2022-06-30 13:05:00,FR,2022,Grandvillars,2995
401,46.0,4.75,2022-06-30 13:05:00,FR,2022,Beauregard,821
402,47.45,6.952,2022-06-30 12:51:00,FR,2022,Abbvillers,1068
403,47.433,6.883,2022-06-30 12:50:00,FR,2022,Hrimoncourt,3619
404,47.367,6.867,2022-06-30 12:45:00,FR,2022,Hrimoncourt,3619
405,47.383,6.833,2022-06-30 12:45:00,FR,2022,Pont-de-Roide-Vermondans,4088
406,47.467,6.867,2022-06-30 12:45:00,FR,2022,Seloncourt,5756
407,47.379,6.831,2022-06-30 12:44:00,FR,2022,Pont-de-Roide-Vermondans,4088
408,47.383,6.85,2022-06-30 12:42:00,FR,2022,Mandeure,4795
409,47.417,6.85,2022-06-30 12:42:00,FR,2022,Hrimoncourt,3619
410,47.383,6.817,2022-06-30 12:40:00,FR,2022,Pont-de-Roide-Vermondans,4088
411,47.45,6.8,2022-06-30 12:37:00,FR,2022,Mandeure,4795
412,47.383,6.767,2022-06-30 12:36:00,FR,2022,Pont-de-Roide-Vermondans,4088
413,47.417,6.783,2022-06-30 12:36:00,FR,2022,Mandeure,4795
414,47.433,6.783,2022-06-30 12:35:00,FR,2022,Mathay,2152
415,47.35,6.767,2022-06-30 12:32:00,FR,2022,Pont-de-Roide-Vermondans,4088
416,47.383,6.75,2022-06-30 12:31:00,FR,2022,Pont-de-Roide-Vermondans,4088
417,42.933,9.464,2022-06-28 15:15:00,FR,2022,Santa-Maria-di-Lota,1971
418,42.956,9.418,2022-06-28 15:12:00,FR,2022,Santa-Maria-di-Lota,1971
419,42.946,9.443,2022-06-28 15:12:00,FR,2022,Santa-Maria-di-Lota,1971
420,42.883,9.467,2022-06-28 15:12:00,FR,2022,Santa-Maria-di-Lota,1971
421,42.9,9.35,2022-06-28 14:51:00,FR,2022,Santa-Maria-di-Lota,1971
422,42.866,9.343,2022-06-28 14:46:00,FR,2022,Santa-Maria-di-Lota,1971
423,42.85,9.35,2022-06-28 14:44:00,FR,2022,Santa-Maria-di-Lota,1971
424,43.167,6.033,2022-06-28 10:35:00,FR,2022,La Farlde,9605
425,47.617,-2.917,2022-06-27 01:00:00,FR,2022,Baden,4418
426,47.471,7.308,2022-06-26 22:15:00,FR,2022,Altkirch,5658
427,47.533,7.183,2022-06-26 22:10:00,FR,2022,Altkirch,5658
428,47.549,7.157,2022-06-26 22:08:00,FR,2022,Altkirch,5658
429,47.502,7.166,2022-06-26 22:08:00,FR,2022,Altkirch,5658
430,47.564,7.151,2022-06-26 22:05:00,FR,2022,Altkirch,5658
431,47.517,7.083,2022-06-26 22:03:00,FR,2022,Grandvillars,2995
432,47.433,6.883,2022-06-26 21:55:00,FR,2022,Hrimoncourt,3619
433,47.483,6.833,2022-06-26 21:50:00,FR,2022,Audincourt,13542
434,47.431,6.919,2022-06-26 21:50:00,FR,2022,Abbvillers,1068
435,47.467,6.867,2022-06-26 21:49:00,FR,2022,Seloncourt,5756
436,47.433,6.783,2022-06-26 21:47:00,FR,2022,Mathay,2152
437,47.467,6.833,2022-06-26 21:46:00,FR,2022,Valentigney,10897
438,47.384,6.849,2022-06-26 21:45:00,FR,2022,Mandeure,4795
439,47.394,6.817,2022-06-26 21:44:00,FR,2022,Pont-de-Roide-Vermondans,4088
440,47.35,6.8,2022-06-26 21:42:00,FR,2022,Pont-de-Roide-Vermondans,4088
441,47.383,6.767,2022-06-26 21:41:00,FR,2022,Pont-de-Roide-Vermondans,4088
442,47.35,6.757,2022-06-26 21:40:00,FR,2022,Pont-de-Roide-Vermondans,4088
443,47.45,6.8,2022-06-26 21:39:00,FR,2022,Mandeure,4795
444,47.35,6.733,2022-06-26 21:38:00,FR,2022,Pont-de-Roide-Vermondans,4088
445,47.427,6.731,2022-06-26 21:38:00,FR,2022,touvans,831
446,47.383,6.683,2022-06-26 21:35:00,FR,2022,Pont-de-Roide-Vermondans,4088
447,47.396,6.668,2022-06-26 21:35:00,FR,2022,Pont-de-Roide-Vermondans,4088
448,47.35,6.617,2022-06-26 21:33:00,FR,2022,Pont-de-Roide-Vermondans,4088
449,47.35,6.667,2022-06-26 21:32:00,FR,2022,Pont-de-Roide-Vermondans,4088
450,47.3,6.583,2022-06-26 21:30:00,FR,2022,Pierrefontaine-les-Varans,1384
451,47.31,6.524,2022-06-26 21:25:00,FR,2022,Pierrefontaine-les-Varans,1384
452,47.233,6.3,2022-06-26 21:09:00,FR,2022,Vercel-Villedieu-le-Camp,1691
453,48.08,7.399,2022-06-26 21:08:00,FR,2022,Horbourg-Wihr,6244
454,48.117,7.383,2022-06-26 21:07:00,FR,2022,Colmar,68294
455,47.217,6.25,2022-06-26 21:05:00,FR,2022,talans,1607
456,48.078,7.357,2022-06-26 21:05:00,FR,2022,Horbourg-Wihr,6244
457,47.749,7.319,2022-06-26 21:05:00,FR,2022,Mulhouse,108038
458,47.171,6.216,2022-06-26 21:05:00,FR,2022,talans,1607
459,47.246,6.238,2022-06-26 21:05:00,FR,2022,Nancray,1272
460,47.267,6.25,2022-06-26 21:04:00,FR,2022,Nancray,1272
461,47.107,6.145,2022-06-26 21:03:00,FR,2022,Ornans,4422
462,47.147,6.215,2022-06-26 21:03:00,FR,2022,talans,1607
463,47.243,6.18,2022-06-26 21:02:00,FR,2022,Nancray,1272
464,47.199,6.159,2022-06-26 21:02:00,FR,2022,Mamirolle,1806
465,48.058,7.302,2022-06-26 21:01:00,FR,2022,Wintzenheim,7933
466,47.736,7.271,2022-06-26 21:00:00,FR,2022,Morschwiller-le-Bas,3648
467,47.167,6.15,2022-06-26 20:59:00,FR,2022,Mamirolle,1806
468,47.158,6.137,2022-06-26 20:58:00,FR,2022,Mamirolle,1806
469,47.704,7.224,2022-06-26 20:57:00,FR,2022,Illfurth,2464
470,47.727,7.226,2022-06-26 20:57:00,FR,2022,Morschwiller-le-Bas,3648
471,47.152,6.069,2022-06-26 20:55:00,FR,2022,Morre,1327
472,47.692,7.192,2022-06-26 20:55:00,FR,2022,Illfurth,2464
473,48.801,7.905,2022-06-26 20:55:00,FR,2022,Soufflenheim,4796
474,47.689,7.171,2022-06-26 20:54:00,FR,2022,Illfurth,2464
475,47.723,7.154,2022-06-26 20:53:00,FR,2022,Cernay,11559
476,47.752,7.092,2022-06-26 20:52:00,FR,2022,Thann,7784
477,47.142,6.046,2022-06-26 20:52:00,FR,2022,Morre,1327
478,47.117,6.025,2022-06-26 20:52:00,FR,2022,Ornans,4422
479,47.7,7.067,2022-06-26 20:51:00,FR,2022,Masevaux-Niederbruck,3682
480,47.712,7.015,2022-06-26 20:50:00,FR,2022,Masevaux-Niederbruck,3682
481,47.067,6.033,2022-06-26 20:50:00,FR,2022,Ornans,4422
482,47.226,6.02,2022-06-26 20:50:00,FR,2022,Besanon,118258
483,47.056,5.993,2022-06-26 20:50:00,FR,2022,Ornans,4422
484,47.694,7.122,2022-06-26 20:50:00,FR,2022,Illfurth,2464
485,47.717,7.089,2022-06-26 20:49:00,FR,2022,Masevaux-Niederbruck,3682
486,47.093,5.956,2022-06-26 20:47:00,FR,2022,Torpes,1020
487,48.782,7.867,2022-06-26 20:47:00,FR,2022,Bischwiller,12606
488,47.702,7.051,2022-06-26 20:46:00,FR,2022,Masevaux-Niederbruck,3682
489,47.108,5.914,2022-06-26 20:46:00,FR,2022,Torpes,1020
490,47.675,6.998,2022-06-26 20:45:00,FR,2022,Masevaux-Niederbruck,3682
491,47.697,6.959,2022-06-26 20:45:00,FR,2022,Masevaux-Niederbruck,3682
492,47.65,6.933,2022-06-26 20:44:00,FR,2022,Danjoutin,3573
493,47.133,5.874,2022-06-26 20:44:00,FR,2022,Torpes,1020
494,47.635,7.004,2022-06-26 20:44:00,FR,2022,Danjoutin,3573
495,47.696,7.012,2022-06-26 20:43:00,FR,2022,Masevaux-Niederbruck,3682
496,47.103,5.882,2022-06-26 20:43:00,FR,2022,Torpes,1020
497,47.283,5.767,2022-06-26 20:42:00,FR,2022,Chemaudin et Vaux,2067
498,48.219,7.049,2022-06-26 20:42:00,FR,2022,Lapoutroie,1851
499,47.621,6.958,2022-06-26 20:42:00,FR,2022,Danjoutin,3573
500,47.661,6.935,2022-06-26 20:40:00,FR,2022,Belfort,45458
501,47.668,6.916,2022-06-26 20:40:00,FR,2022,Belfort,45458
502,47.658,6.916,2022-06-26 20:39:00,FR,2022,Belfort,45458
503,47.633,6.917,2022-06-26 20:38:00,FR,2022,Danjoutin,3573
504,47.609,6.914,2022-06-26 20:38:00,FR,2022,Danjoutin,3573
505,47.116,5.855,2022-06-26 20:38:00,FR,2022,Torpes,1020
506,47.667,6.895,2022-06-26 20:38:00,FR,2022,Belfort,45458
507,47.667,6.883,2022-06-26 20:37:00,FR,2022,Belfort,45458
508,47.596,6.898,2022-06-26 20:37:00,FR,2022,Danjoutin,3573
509,47.586,6.886,2022-06-26 20:36:00,FR,2022,Danjoutin,3573
510,47.633,6.9,2022-06-26 20:36:00,FR,2022,Danjoutin,3573
511,47.617,6.867,2022-06-26 20:36:00,FR,2022,Danjoutin,3573
512,47.667,6.842,2022-06-26 20:36:00,FR,2022,Belfort,45458
513,47.039,5.814,2022-06-26 20:36:00,FR,2022,Torpes,1020
514,47.098,5.813,2022-06-26 20:36:00,FR,2022,Torpes,1020
515,47.583,6.867,2022-06-26 20:35:00,FR,2022,Danjoutin,3573
516,47.633,6.867,2022-06-26 20:35:00,FR,2022,Danjoutin,3573
517,47.567,6.867,2022-06-26 20:35:00,FR,2022,Nommay,1611
518,47.033,5.782,2022-06-26 20:34:00,FR,2022,Torpes,1020
519,47.64,6.786,2022-06-26 20:33:00,FR,2022,Bavilliers,4627
520,47.583,6.833,2022-06-26 20:32:00,FR,2022,Bavilliers,4627
521,47.617,6.833,2022-06-26 20:32:00,FR,2022,Bavilliers,4627
522,47.562,6.849,2022-06-26 20:32:00,FR,2022,Nommay,1611
523,47.633,6.817,2022-06-26 20:31:00,FR,2022,Bavilliers,4627
524,47.65,6.833,2022-06-26 20:30:00,FR,2022,Belfort,45458
525,48.283,6.95,2022-06-26 20:30:00,FR,2022,Saint-Di-des-Vosges,19490
526,47.017,5.717,2022-06-26 20:30:00,FR,2022,Dole,23611
527,47.573,6.762,2022-06-26 20:28:00,FR,2022,Hricourt,10592
528,47.689,6.872,2022-06-26 20:28:00,FR,2022,Belfort,45458
529,47.612,6.734,2022-06-26 20:27:00,FR,2022,Hricourt,10592
530,47.0,5.717,2022-06-26 20:25:00,FR,2022,Dole,23611
531,47.591,6.724,2022-06-26 20:25:00,FR,2022,Hricourt,10592
532,47.551,6.731,2022-06-26 20:25:00,FR,2022,Hricourt,10592
533,48.407,7.261,2022-06-26 20:23:00,FR,2022,Andlau,1763
534,47.567,6.717,2022-06-26 20:22:00,FR,2022,Hricourt,10592
535,47.526,6.695,2022-06-26 20:22:00,FR,2022,Montenois,1459
536,48.633,7.741,2022-06-26 20:22:00,FR,2022,HÏnheim,11446
537,48.646,7.753,2022-06-26 20:22:00,FR,2022,HÏnheim,11446
538,48.665,7.712,2022-06-26 20:21:00,FR,2022,Vendenheim,6010
539,47.1,5.5,2022-06-26 20:20:00,FR,2022,Dole,23611
540,48.621,7.755,2022-06-26 20:20:00,FR,2022,HÏnheim,11446
541,48.641,7.714,2022-06-26 20:19:00,FR,2022,Mundolsheim,4911
542,48.613,7.751,2022-06-26 20:19:00,FR,2022,Schiltigheim,33993
543,48.651,7.699,2022-06-26 20:19:00,FR,2022,Mundolsheim,4911
544,48.598,7.761,2022-06-26 20:18:00,FR,2022,Schiltigheim,33993
545,48.603,7.746,2022-06-26 20:18:00,FR,2022,Schiltigheim,33993
546,48.644,7.673,2022-06-26 20:18:00,FR,2022,Mundolsheim,4911
547,48.636,7.668,2022-06-26 20:17:00,FR,2022,Oberhausbergen,5459
548,48.629,7.671,2022-06-26 20:16:00,FR,2022,Oberhausbergen,5459
549,47.146,5.457,2022-06-26 20:15:00,FR,2022,Auxonne,7621
550,48.633,7.617,2022-06-26 20:14:00,FR,2022,Truchtersheim,4386
551,47.513,6.517,2022-06-26 20:12:00,FR,2022,Montenois,1459
552,48.605,7.685,2022-06-26 20:12:00,FR,2022,Oberhausbergen,5459
553,48.582,7.734,2022-06-26 20:12:00,FR,2022,Strasbourg,290576
554,48.584,7.753,2022-06-26 20:12:00,FR,2022,Strasbourg,290576
555,48.594,7.716,2022-06-26 20:11:00,FR,2022,Oberhausbergen,5459
556,48.586,7.65,2022-06-26 20:10:00,FR,2022,Oberschaeffolsheim,2438
557,48.605,7.594,2022-06-26 20:10:00,FR,2022,Ittenheim,2098
558,48.581,7.711,2022-06-26 20:10:00,FR,2022,Eckbolsheim,7143
559,48.586,7.667,2022-06-26 20:10:00,FR,2022,Eckbolsheim,7143
560,48.568,7.71,2022-06-26 20:09:00,FR,2022,Ostwald,12985
561,48.541,7.711,2022-06-26 20:08:00,FR,2022,Ostwald,12985
562,48.58,7.626,2022-06-26 20:08:00,FR,2022,Achenheim,2437
563,48.009,6.718,2022-06-26 20:07:00,FR,2022,Remiremont,7711
564,48.58,7.602,2022-06-26 20:06:00,FR,2022,Achenheim,2437
565,47.999,6.643,2022-06-26 20:05:00,FR,2022,Remiremont,7711
566,48.559,7.643,2022-06-26 20:05:00,FR,2022,Holtzheim,3821
567,48.561,7.615,2022-06-26 20:05:00,FR,2022,Holtzheim,3821
568,48.555,7.682,2022-06-26 20:04:00,FR,2022,Lingolsheim,19797
569,48.56,7.588,2022-06-26 20:04:00,FR,2022,Dachstein,1811
570,48.534,7.637,2022-06-26 20:03:00,FR,2022,Entzheim,2485
571,48.27,7.003,2022-06-26 20:03:00,FR,2022,Saint-Di-des-Vosges,19490
572,48.565,7.566,2022-06-26 20:03:00,FR,2022,Dachstein,1811
573,48.56,7.532,2022-06-26 20:02:00,FR,2022,Dachstein,1811
574,48.515,7.648,2022-06-26 20:02:00,FR,2022,Geispolsheim,7603
575,48.569,7.528,2022-06-26 20:02:00,FR,2022,Dachstein,1811
576,48.506,7.607,2022-06-26 20:01:00,FR,2022,Duttlenheim,2848
577,48.527,7.564,2022-06-26 20:00:00,FR,2022,Duttlenheim,2848
578,48.529,7.594,2022-06-26 20:00:00,FR,2022,Duttlenheim,2848
579,48.496,7.572,2022-06-26 19:58:00,FR,2022,Duttlenheim,2848
580,48.538,7.493,2022-06-26 19:57:00,FR,2022,Dachstein,1811
581,48.523,7.526,2022-06-26 19:57:00,FR,2022,Duttlenheim,2848
582,48.477,7.567,2022-06-26 19:56:00,FR,2022,Bischoffsheim,3338
583,48.503,7.532,2022-06-26 19:55:00,FR,2022,Bischoffsheim,3338
584,48.54,7.457,2022-06-26 19:54:00,FR,2022,Dachstein,1811
585,48.524,7.485,2022-06-26 19:54:00,FR,2022,Bischoffsheim,3338
586,48.543,7.427,2022-06-26 19:54:00,FR,2022,Dachstein,1811
587,48.533,7.433,2022-06-26 19:53:00,FR,2022,Dachstein,1811
588,48.449,7.545,2022-06-26 19:52:00,FR,2022,Bischoffsheim,3338
589,47.911,6.428,2022-06-26 19:52:00,FR,2022,Luxeuil-les-Bains,6644
590,48.45,7.517,2022-06-26 19:51:00,FR,2022,Obernai,12015
591,47.896,6.432,2022-06-26 19:51:00,FR,2022,Luxeuil-les-Bains,6644
592,47.883,6.4,2022-06-26 19:50:00,FR,2022,Luxeuil-les-Bains,6644
593,48.283,6.95,2022-06-26 19:50:00,FR,2022,Saint-Di-des-Vosges,19490
594,47.888,6.373,2022-06-26 19:50:00,FR,2022,Luxeuil-les-Bains,6644
595,47.841,6.469,2022-06-26 19:50:00,FR,2022,Luxeuil-les-Bains,6644
596,47.397,6.262,2022-06-26 19:50:00,FR,2022,Baume-les-Dames,4984
597,47.835,6.469,2022-06-26 19:50:00,FR,2022,Luxeuil-les-Bains,6644
598,47.903,6.411,2022-06-26 19:50:00,FR,2022,Luxeuil-les-Bains,6644
599,48.505,7.44,2022-06-26 19:48:00,FR,2022,Obernai,12015
600,48.432,7.485,2022-06-26 19:48:00,FR,2022,Obernai,12015
601,48.487,7.492,2022-06-26 19:48:00,FR,2022,Bischoffsheim,3338
602,47.817,6.383,2022-06-26 19:47:00,FR,2022,Luxeuil-les-Bains,6644
603,48.497,7.47,2022-06-26 19:47:00,FR,2022,Bischoffsheim,3338
604,47.819,6.417,2022-06-26 19:47:00,FR,2022,Luxeuil-les-Bains,6644
605,47.802,6.384,2022-06-26 19:47:00,FR,2022,Luxeuil-les-Bains,6644
606,48.411,7.466,2022-06-26 19:47:00,FR,2022,Barr,7174
607,48.462,7.481,2022-06-26 19:47:00,FR,2022,Obernai,12015
608,48.406,7.444,2022-06-26 19:46:00,FR,2022,Barr,7174
609,48.423,7.45,2022-06-26 19:46:00,FR,2022,Barr,7174
610,48.451,7.461,2022-06-26 19:46:00,FR,2022,Obernai,12015
611,47.867,6.385,2022-06-26 19:46:00,FR,2022,Luxeuil-les-Bains,6644
612,48.476,7.44,2022-06-26 19:45:00,FR,2022,Obernai,12015
613,48.456,7.424,2022-06-26 19:44:00,FR,2022,BÏrsch,2430
614,48.47,7.408,2022-06-26 19:42:00,FR,2022,BÏrsch,2430
615,48.507,7.386,2022-06-26 19:42:00,FR,2022,BÏrsch,2430
616,47.333,6.2,2022-06-26 19:41:00,FR,2022,Novillars,1446
617,47.306,6.151,2022-06-26 19:40:00,FR,2022,Novillars,1446
618,48.367,7.383,2022-06-26 19:38:00,FR,2022,Andlau,1763
619,48.52,7.285,2022-06-26 19:37:00,FR,2022,Wisches,2077
620,47.282,6.153,2022-06-26 19:36:00,FR,2022,Novillars,1446
621,48.51,7.27,2022-06-26 19:35:00,FR,2022,Wisches,2077
622,47.282,6.076,2022-06-26 19:35:00,FR,2022,Roche-lez-Beaupr,2169
623,47.275,6.114,2022-06-26 19:35:00,FR,2022,Roche-lez-Beaupr,2169
624,48.403,7.326,2022-06-26 19:33:00,FR,2022,Andlau,1763
625,48.455,7.207,2022-06-26 19:32:00,FR,2022,Wisches,2077
626,48.468,7.212,2022-06-26 19:32:00,FR,2022,Wisches,2077
627,48.439,7.238,2022-06-26 19:31:00,FR,2022,Wisches,2077
628,48.437,7.224,2022-06-26 19:31:00,FR,2022,Wisches,2077
629,48.367,7.3,2022-06-26 19:30:00,FR,2022,Andlau,1763
630,48.329,7.313,2022-06-26 19:30:00,FR,2022,Andlau,1763
631,48.413,7.214,2022-06-26 19:30:00,FR,2022,Wisches,2077
632,48.353,7.264,2022-06-26 19:28:00,FR,2022,Andlau,1763
633,48.35,7.29,2022-06-26 19:28:00,FR,2022,Andlau,1763
634,48.342,7.303,2022-06-26 19:25:00,FR,2022,Andlau,1763
635,48.361,7.235,2022-06-26 19:25:00,FR,2022,Sainte-Croix-aux-Mines,1857
636,48.326,7.292,2022-06-26 19:25:00,FR,2022,Sainte-Croix-aux-Mines,1857
637,48.419,7.146,2022-06-26 19:25:00,FR,2022,Wisches,2077
638,48.332,7.256,2022-06-26 19:24:00,FR,2022,Sainte-Croix-aux-Mines,1857
639,48.335,7.284,2022-06-26 19:24:00,FR,2022,Sainte-Croix-aux-Mines,1857
640,48.326,7.275,2022-06-26 19:24:00,FR,2022,Sainte-Croix-aux-Mines,1857
641,48.299,7.214,2022-06-26 19:20:00,FR,2022,Sainte-Croix-aux-Mines,1857
642,48.327,7.181,2022-06-26 19:20:00,FR,2022,Sainte-Croix-aux-Mines,1857
643,48.317,7.153,2022-06-26 19:16:00,FR,2022,Sainte-Croix-aux-Mines,1857
644,48.092,6.612,2022-06-26 19:15:00,FR,2022,loyes,3110
645,48.316,7.111,2022-06-26 19:15:00,FR,2022,Sainte-Croix-aux-Mines,1857
646,48.292,7.104,2022-06-26 19:12:00,FR,2022,Sainte-Croix-aux-Mines,1857
647,48.285,7.081,2022-06-26 19:11:00,FR,2022,Sainte-Croix-aux-Mines,1857
648,48.276,7.065,2022-06-26 19:10:00,FR,2022,Saint-Di-des-Vosges,19490
649,48.254,7.085,2022-06-26 19:08:00,FR,2022,Sainte-Croix-aux-Mines,1857
650,48.05,6.58,2022-06-26 19:08:00,FR,2022,Saint-Nabord,3992
651,48.293,7.064,2022-06-26 19:07:00,FR,2022,Saint-Di-des-Vosges,19490
652,48.024,6.662,2022-06-26 19:06:00,FR,2022,Remiremont,7711
653,48.026,6.696,2022-06-26 19:06:00,FR,2022,Remiremont,7711
654,48.244,7.065,2022-06-26 19:06:00,FR,2022,Sainte-Croix-aux-Mines,1857
655,48.297,7.008,2022-06-26 19:03:00,FR,2022,Saint-Di-des-Vosges,19490
656,48.252,7.023,2022-06-26 19:03:00,FR,2022,Saint-Di-des-Vosges,19490
657,48.287,6.949,2022-06-26 19:02:00,FR,2022,Saint-Di-des-Vosges,19490
658,48.268,6.979,2022-06-26 19:02:00,FR,2022,Saint-Di-des-Vosges,19490
659,48.232,6.992,2022-06-26 19:00:00,FR,2022,Saint-Di-des-Vosges,19490
660,48.22,6.993,2022-06-26 19:00:00,FR,2022,Saint-Di-des-Vosges,19490
661,48.237,6.961,2022-06-26 18:58:00,FR,2022,Saint-Di-des-Vosges,19490
662,47.919,6.336,2022-06-26 18:53:00,FR,2022,Saint-Loup-sur-Semouse,3046
663,48.195,6.853,2022-06-26 18:50:00,FR,2022,Saint-Di-des-Vosges,19490
664,47.89,6.327,2022-06-26 18:50:00,FR,2022,Saint-Loup-sur-Semouse,3046
665,48.186,6.791,2022-06-26 18:47:00,FR,2022,Grardmer,7822
666,48.217,6.8,2022-06-26 18:47:00,FR,2022,Saint-Di-des-Vosges,19490
667,47.756,6.131,2022-06-26 18:33:00,FR,2022,Vesoul,14866
668,47.885,6.273,2022-06-26 18:09:00,FR,2022,Saint-Loup-sur-Semouse,3046
669,47.842,6.286,2022-06-26 18:06:00,FR,2022,Saint-Loup-sur-Semouse,3046
670,46.692,4.546,2022-06-26 17:08:00,FR,2022,Montchanin,4992
671,46.607,4.359,2022-06-26 16:57:00,FR,2022,Saint-Vallier,4017
672,46.607,4.359,2022-06-26 16:57:00,FR,2022,Saint-Vallier,8541
673,48.283,4.867,2022-06-25 17:16:00,FR,2022,Bayel,747
674,48.233,4.817,2022-06-25 17:11:00,FR,2022,Bayel,747
675,48.233,4.767,2022-06-25 17:07:00,FR,2022,Bar-sur-Aube,4774
676,48.2,4.779,2022-06-25 16:59:00,FR,2022,Bayel,747
677,48.192,4.722,2022-06-25 16:54:00,FR,2022,Bar-sur-Aube,4774
678,48.133,4.683,2022-06-25 16:45:00,FR,2022,Ville-sous-la-Fert,907
679,48.1,4.617,2022-06-25 16:40:00,FR,2022,Ville-sous-la-Fert,907
680,48.083,4.467,2022-06-25 16:30:00,FR,2022,Celles-sur-Ource,482
681,48.017,4.45,2022-06-25 16:26:00,FR,2022,Celles-sur-Ource,482
682,48.033,4.433,2022-06-25 16:25:00,FR,2022,Celles-sur-Ource,482
683,48.033,4.417,2022-06-25 16:23:00,FR,2022,Celles-sur-Ource,482
684,48.033,4.367,2022-06-25 16:19:00,FR,2022,Les Riceys,1207
685,47.983,4.367,2022-06-25 16:16:00,FR,2022,Les Riceys,1207
686,47.983,4.283,2022-06-25 16:14:00,FR,2022,Les Riceys,1207
687,47.967,4.267,2022-06-25 16:09:00,FR,2022,Les Riceys,1207
688,47.933,4.25,2022-06-25 16:07:00,FR,2022,Les Riceys,1207
689,44.35,6.36,2022-06-24 10:33:00,FR,2022,Seyne,1372
690,43.983,5.567,2022-06-24 10:14:00,FR,2022,Simiane-la-Rotonde,607
691,44.167,5.133,2022-06-24 09:45:00,FR,2022,Malaucne,2736
692,44.117,5.033,2022-06-24 09:35:00,FR,2022,Sarrians,6030
693,44.15,5.067,2022-06-24 09:30:00,FR,2022,Malaucne,2736
694,44.05,4.783,2022-06-24 09:17:00,FR,2022,Roquemaure,5531
695,44.099,4.757,2022-06-24 09:17:00,FR,2022,Caderousse,2639
696,44.096,4.724,2022-06-24 09:16:00,FR,2022,Caderousse,2639
697,44.05,4.7,2022-06-24 09:15:00,FR,2022,Saint-Laurent-des-Arbres,2968
698,44.1,4.667,2022-06-24 09:15:00,FR,2022,Laudun-l'Ardoise,6327
699,44.067,4.633,2022-06-24 09:13:00,FR,2022,Connaux,1701
700,44.083,4.6,2022-06-24 09:10:00,FR,2022,Connaux,1701
701,44.063,4.642,2022-06-24 09:10:00,FR,2022,Connaux,1701
702,44.081,4.612,2022-06-24 09:08:00,FR,2022,Connaux,1701
703,44.08,4.579,2022-06-24 09:07:00,FR,2022,Connaux,1701
704,44.533,5.817,2022-06-24 09:05:00,FR,2022,Veynes,3231
705,44.041,4.58,2022-06-24 09:05:00,FR,2022,Connaux,1701
706,44.1,5.117,2022-06-24 08:52:00,FR,2022,Mazan,6235
707,43.853,4.112,2022-06-24 08:32:00,FR,2022,Saint-Mamert-du-Gard,1641
708,43.933,4.125,2022-06-24 08:30:00,FR,2022,Fons,1733
709,43.882,4.097,2022-06-24 08:30:00,FR,2022,Saint-Mamert-du-Gard,1641
710,43.7,4.033,2022-06-24 08:29:00,FR,2022,Restinclires,2183
711,43.942,4.083,2022-06-24 08:26:00,FR,2022,Ldignan,1491
712,43.95,4.022,2022-06-24 08:22:00,FR,2022,Quissac,3333
713,43.917,4.0,2022-06-24 08:21:00,FR,2022,Quissac,3333
714,43.609,3.919,2022-06-24 08:21:00,FR,2022,Castelnau-le-Lez,23469
715,43.901,4.005,2022-06-24 08:20:00,FR,2022,Quissac,3333
716,43.939,3.999,2022-06-24 08:20:00,FR,2022,Quissac,3333
717,43.933,3.95,2022-06-24 08:15:00,FR,2022,Sauve,1893
718,43.85,3.95,2022-06-24 08:15:00,FR,2022,Quissac,3333
719,43.833,3.917,2022-06-24 08:13:00,FR,2022,Saint-Mathieu-de-Trviers,4893
720,43.867,3.9,2022-06-24 08:10:00,FR,2022,Sauve,1893
721,48.35,7.117,2022-06-23 18:17:00,FR,2022,Sainte-Croix-aux-Mines,1857
722,43.433,1.233,2022-06-23 16:45:00,FR,2022,Lherm,3804
723,43.333,1.0,2022-06-23 16:25:00,FR,2022,Le Fousseret,1895
724,47.317,6.917,2022-06-23 16:07:00,FR,2022,Abbvillers,1068
725,47.217,6.817,2022-06-23 15:51:00,FR,2022,Charquemont,2791
726,47.219,6.796,2022-06-23 15:49:00,FR,2022,Mache,4259
727,47.239,6.814,2022-06-23 15:46:00,FR,2022,Mache,4259
728,47.25,6.8,2022-06-23 15:45:00,FR,2022,Mache,4259
729,47.217,6.767,2022-06-23 15:44:00,FR,2022,Mache,4259
730,47.211,6.814,2022-06-23 15:44:00,FR,2022,Charquemont,2791
731,47.206,6.777,2022-06-23 15:42:00,FR,2022,Mache,4259
732,47.167,6.627,2022-06-23 15:33:00,FR,2022,Pierrefontaine-les-Varans,1384
733,47.2,6.7,2022-06-23 15:32:00,FR,2022,Le Russey,2446
734,47.167,6.65,2022-06-23 15:24:00,FR,2022,Le Russey,2446
735,46.6,5.633,2022-06-23 14:28:00,FR,2022,Macornay,979
736,46.2,5.217,2022-06-23 13:23:00,FR,2022,Bourg-en-Bresse,41681
737,46.202,5.274,2022-06-23 13:19:00,FR,2022,Saint-Just,955
738,46.202,5.274,2022-06-23 13:19:00,FR,2022,Saint-Just,3290
739,46.039,5.305,2022-06-23 13:10:00,FR,2022,Priay,1725
740,45.65,5.017,2022-06-23 12:47:00,FR,2022,Heyrieux,4708
741,45.583,5.0,2022-06-23 12:44:00,FR,2022,Valencin,2885
742,45.533,4.917,2022-06-23 12:28:00,FR,2022,Pont-vque,5329
743,45.517,4.867,2022-06-23 12:27:00,FR,2022,Vienne,30059
744,45.517,4.85,2022-06-23 12:26:00,FR,2022,Vienne,30059
745,45.5,4.833,2022-06-23 12:25:00,FR,2022,Ampuis,2743
746,45.5,4.91,2022-06-23 12:24:00,FR,2022,Vienne,30059
747,45.467,4.833,2022-06-23 12:24:00,FR,2022,Chonas-l'Amballan,1687
748,44.33,2.8,2022-06-23 12:15:00,FR,2022,Laissac-Svrac l'glise,2153
749,44.1,2.617,2022-06-23 12:05:00,FR,2022,La Selve,626
750,44.056,2.595,2022-06-23 11:59:00,FR,2022,Rquista,1978
751,44.069,2.602,2022-06-23 11:57:00,FR,2022,Rquista,1978
752,44.042,2.569,2022-06-23 11:54:00,FR,2022,Rquista,1978
753,44.033,2.533,2022-06-23 11:51:00,FR,2022,Rquista,1978
754,44.733,1.383,2022-06-23 10:26:00,FR,2022,Gourdon,371
755,44.733,1.383,2022-06-23 10:26:00,FR,2022,Gourdon,3959
756,44.494,1.217,2022-06-23 09:50:00,FR,2022,Villefranche-du-Prigord,671
757,44.467,1.2,2022-06-23 09:48:00,FR,2022,Montayral,2669
758,44.4,1.0,2022-06-23 09:21:00,FR,2022,Montayral,2669
759,44.233,0.667,2022-06-23 08:28:00,FR,2022,Pont-du-Casse,4156
760,44.2,0.633,2022-06-23 08:22:00,FR,2022,Agen,32214
761,44.7,5.267,2022-06-22 17:00:00,FR,2022,Die,4770
762,45.793,4.032,2022-06-22 16:05:00,FR,2022,Bon-sur-Lignon,3025
763,45.545,4.487,2022-06-22 16:03:00,FR,2022,Saint-Christo-en-Jarez,1909
764,45.729,4.007,2022-06-22 15:50:00,FR,2022,Bon-sur-Lignon,3025
765,45.733,3.983,2022-06-22 15:48:00,FR,2022,Bon-sur-Lignon,3025
766,45.499,4.244,2022-06-22 15:35:00,FR,2022,Saint-Just-Saint-Rambert,15239
767,46.153,4.123,2022-06-22 14:57:00,FR,2022,Saint-Nizier-sous-Charlieu,1695
768,46.146,4.11,2022-06-22 14:55:00,FR,2022,Saint-Nizier-sous-Charlieu,1695
769,46.086,4.063,2022-06-22 14:50:00,FR,2022,Mably,7517
770,46.041,4.077,2022-06-22 14:45:00,FR,2022,Roanne,34415
771,46.041,4.122,2022-06-22 14:45:00,FR,2022,Perreux,2106
772,46.043,4.034,2022-06-22 14:43:00,FR,2022,Riorges,10917
773,46.022,4.092,2022-06-22 14:40:00,FR,2022,Le Coteau,6886
774,47.75,6.083,2022-06-22 14:38:00,FR,2022,Vesoul,14866
775,46.0,4.067,2022-06-22 14:36:00,FR,2022,Le Coteau,6886
776,47.733,6.05,2022-06-22 14:34:00,FR,2022,Vesoul,14866
777,45.966,4.09,2022-06-22 14:30:00,FR,2022,Le Coteau,6886
778,47.733,5.933,2022-06-22 14:26:00,FR,2022,Vesoul,14866
779,47.35,6.117,2022-06-22 14:25:00,FR,2022,Novillars,1446
780,47.367,6.083,2022-06-22 14:25:00,FR,2022,Devecey,1343
781,47.717,5.883,2022-06-22 14:22:00,FR,2022,Vesoul,14866
782,45.877,4.038,2022-06-22 14:20:00,FR,2022,Villerest,5097
783,47.7,5.733,2022-06-22 13:57:00,FR,2022,Chalindrey,2406
784,47.133,4.95,2022-06-22 13:15:00,FR,2022,Nuits-Saint-Georges,5332
785,47.233,4.95,2022-06-22 13:00:00,FR,2022,Gevrey-Chambertin,3115
786,47.25,4.967,2022-06-22 13:00:00,FR,2022,Couchey,1104
787,47.267,4.983,2022-06-22 13:00:00,FR,2022,Marsannay-la-Cte,5311
788,47.267,4.983,2022-06-22 13:00:00,FR,2022,Marsannay-la-Cte,5311
789,47.017,4.783,2022-06-22 13:00:00,FR,2022,Beaune,20122
790,46.05,0.583,2022-06-22 04:00:00,FR,2022,Confolens,2720
791,46.067,0.585,2022-06-22 04:00:00,FR,2022,Confolens,2720
792,47.585,4.005,2022-06-21 21:00:00,FR,2022,Avallon,6414
793,47.583,3.967,2022-06-21 20:55:00,FR,2022,Avallon,6414
794,47.083,2.4,2022-06-21 20:30:00,FR,2022,Bourges,64362
795,47.017,2.35,2022-06-21 20:30:00,FR,2022,Trouy,3977
796,47.083,2.4,2022-06-21 20:00:00,FR,2022,Bourges,64362
797,47.867,3.35,2022-06-21 19:45:00,FR,2022,Montholon,2814
798,47.733,3.3,2022-06-21 19:30:00,FR,2022,Chevannes,2165
799,47.2,4.177,2022-06-21 19:28:00,FR,2022,Saulieu,2346
800,47.2,4.283,2022-06-21 19:14:00,FR,2022,Saulieu,2346
801,47.7,3.267,2022-06-21 19:14:00,FR,2022,Chevannes,2165
802,46.708,3.002,2022-06-21 19:13:00,FR,2022,Limoise,168
803,47.617,3.2,2022-06-21 19:05:00,FR,2022,Chevannes,2165
804,46.724,2.878,2022-06-21 18:55:00,FR,2022,Lurcy-Lvis,1881
805,47.15,3.2,2022-06-21 17:48:00,FR,2022,Gurigny,2525
806,47.154,3.167,2022-06-21 17:46:00,FR,2022,Chaulgnes,1508
807,47.133,3.1,2022-06-21 17:45:00,FR,2022,Chaulgnes,1508
808,47.133,3.0,2022-06-21 17:32:00,FR,2022,La Charit-sur-Loire,4673
809,46.367,4.733,2022-06-21 16:40:00,FR,2022,Charnay-ls-Mcon,7925
810,46.433,4.65,2022-06-21 16:15:00,FR,2022,Cluny,4931
811,46.5,4.383,2022-06-21 15:55:00,FR,2022,Ciry-le-Noble,2252
812,46.474,4.339,2022-06-21 15:49:00,FR,2022,Ciry-le-Noble,2252
813,46.533,4.333,2022-06-21 15:45:00,FR,2022,Ciry-le-Noble,2252
814,46.467,4.25,2022-06-21 15:40:00,FR,2022,Paray-le-Monial,9218
815,46.473,4.09,2022-06-21 15:31:00,FR,2022,Paray-le-Monial,9218
816,46.45,4.117,2022-06-21 15:30:00,FR,2022,Paray-le-Monial,9218
817,46.498,4.018,2022-06-21 15:28:00,FR,2022,Digoin,7616
818,46.783,4.05,2022-06-21 15:27:00,FR,2022,Luzy,1994
819,46.483,3.95,2022-06-21 15:24:00,FR,2022,Molinet,1144
820,46.45,3.983,2022-06-21 15:23:00,FR,2022,Chassenard,1030
821,46.483,3.983,2022-06-21 15:23:00,FR,2022,Digoin,7616
822,46.467,3.933,2022-06-21 15:22:00,FR,2022,Molinet,1144
823,46.484,3.858,2022-06-21 15:16:00,FR,2022,Molinet,1144
824,46.467,3.75,2022-06-21 15:10:00,FR,2022,Diou,1373
825,46.433,3.817,2022-06-21 15:10:00,FR,2022,Saint-Didier-en-Donjon,248
826,46.4,3.683,2022-06-21 15:06:00,FR,2022,Saint-Lon,539
827,46.383,3.65,2022-06-21 15:06:00,FR,2022,Sorbier,318
828,46.533,3.75,2022-06-21 15:05:00,FR,2022,Diou,1373
829,46.452,3.703,2022-06-21 15:05:00,FR,2022,Saint-Lon,539
830,46.567,3.367,2022-06-21 15:02:00,FR,2022,Yzeure,12701
831,46.45,4.833,2022-06-21 15:02:00,FR,2022,Reyssouze,1018
832,46.517,3.683,2022-06-21 15:01:00,FR,2022,Dompierre-sur-Besbre,3010
833,46.433,4.817,2022-06-21 15:00:00,FR,2022,Asnires-sur-Sane,76
834,46.417,4.817,2022-06-21 14:58:00,FR,2022,Asnires-sur-Sane,76
835,46.379,3.592,2022-06-21 14:58:00,FR,2022,Sorbier,318
836,46.468,3.593,2022-06-21 14:57:00,FR,2022,Dompierre-sur-Besbre,3010
837,46.45,3.633,2022-06-21 14:57:00,FR,2022,Saint-Lon,539
838,46.4,3.567,2022-06-21 14:56:00,FR,2022,Treteau,510
839,46.4,3.517,2022-06-21 14:51:00,FR,2022,Treteau,510
840,46.45,3.517,2022-06-21 14:49:00,FR,2022,Neuilly-le-Ral,1452
841,46.317,4.75,2022-06-21 14:48:00,FR,2022,Charnay-ls-Mcon,7925
842,46.367,3.4,2022-06-21 14:45:00,FR,2022,Saint-Loup,565
843,46.383,3.3,2022-06-21 14:43:00,FR,2022,Montay-sur-Allier,542
844,46.4,3.333,2022-06-21 14:42:00,FR,2022,Montay-sur-Allier,542
845,46.45,3.417,2022-06-21 14:35:00,FR,2022,Neuilly-le-Ral,1452
846,46.443,3.364,2022-06-21 14:33:00,FR,2022,Bessay-sur-Allier,1347
847,46.15,4.55,2022-06-21 14:32:00,FR,2022,Belleville-en-Beaujolais,13336
848,46.333,3.25,2022-06-21 14:31:00,FR,2022,Bransat,526
849,46.325,3.263,2022-06-21 14:31:00,FR,2022,Louchy-Montfand,429
850,46.4,3.233,2022-06-21 14:30:00,FR,2022,Bresnay,384
851,46.117,4.6,2022-06-21 14:30:00,FR,2022,Belleville-en-Beaujolais,13336
852,46.326,3.229,2022-06-21 14:29:00,FR,2022,Bransat,526
853,46.35,3.167,2022-06-21 14:23:00,FR,2022,Bransat,526
854,46.083,4.467,2022-06-21 14:16:00,FR,2022,Cours,4366
855,46.067,4.5,2022-06-21 14:14:00,FR,2022,Cours,4366
856,45.95,4.433,2022-06-21 14:07:00,FR,2022,Tarare,10572
857,46.317,2.95,2022-06-21 14:01:00,FR,2022,Montmarault,1523
858,46.317,2.917,2022-06-21 13:58:00,FR,2022,Montmarault,1523
859,45.6,4.2,2022-06-21 13:45:00,FR,2022,Montrond-les-Bains,5444
860,45.783,4.25,2022-06-21 13:45:00,FR,2022,Civens,1415
861,45.667,4.167,2022-06-21 13:30:00,FR,2022,Montrond-les-Bains,5444
862,45.467,4.5,2022-06-21 12:50:00,FR,2022,Saint-Chamond,35309
863,45.633,4.45,2022-06-21 12:48:00,FR,2022,Saint-Symphorien-sur-Coise,3704
864,45.433,4.441,2022-06-21 12:45:00,FR,2022,Saint-tienne,174082
865,45.456,4.447,2022-06-21 12:45:00,FR,2022,La Talaudire,7044
866,45.416,4.424,2022-06-21 12:43:00,FR,2022,Saint-tienne,174082
867,45.422,4.419,2022-06-21 12:42:00,FR,2022,Saint-tienne,174082
868,45.426,4.402,2022-06-21 12:37:00,FR,2022,Saint-tienne,174082
869,45.439,4.389,2022-06-21 12:36:00,FR,2022,Saint-tienne,174082
870,45.412,4.385,2022-06-21 12:35:00,FR,2022,La Ricamarie,7943
871,45.522,4.298,2022-06-21 12:31:00,FR,2022,Andrzieux-Bouthon,10108
872,45.5,1.317,2022-06-20 21:43:00,FR,2022,Lubersac,2246
873,43.451,-0.443,2022-06-20 21:42:00,FR,2022,Sauvagnon,3460
874,43.439,-0.387,2022-06-20 21:40:00,FR,2022,Sauvagnon,3460
875,43.403,-0.387,2022-06-20 21:38:00,FR,2022,Sauvagnon,3460
876,43.412,-0.401,2022-06-20 21:38:00,FR,2022,Sauvagnon,3460
877,43.399,-0.473,2022-06-20 21:34:00,FR,2022,Sauvagnon,3460
878,43.392,-0.522,2022-06-20 21:32:00,FR,2022,Artix,3434
879,45.517,1.2,2022-06-20 21:31:00,FR,2022,Saint-Yrieix-la-Perche,6778
880,45.483,1.217,2022-06-20 21:30:00,FR,2022,Saint-Yrieix-la-Perche,6778
881,43.355,-0.484,2022-06-20 21:30:00,FR,2022,Lescar,9590
882,43.363,-0.508,2022-06-20 21:30:00,FR,2022,Artix,3434
883,43.352,-0.469,2022-06-20 21:30:00,FR,2022,Lescar,9590
884,43.356,-0.534,2022-06-20 21:28:00,FR,2022,Artix,3434
885,43.358,-0.564,2022-06-20 21:27:00,FR,2022,Artix,3434
886,43.326,-0.543,2022-06-20 21:26:00,FR,2022,Monein,4417
887,43.306,-0.547,2022-06-20 21:24:00,FR,2022,Monein,4417
888,43.333,-0.583,2022-06-20 21:22:00,FR,2022,Monein,4417
889,45.483,1.067,2022-06-20 21:15:00,FR,2022,Saint-Yrieix-la-Perche,6778
890,45.433,1.033,2022-06-20 21:13:00,FR,2022,Thiviers,2870
891,45.483,1.0,2022-06-20 21:10:00,FR,2022,Saint-Jory-de-Chalais,581
892,43.415,-0.343,2022-06-20 20:57:00,FR,2022,Serres-Castet,4393
893,45.417,0.833,2022-06-20 20:55:00,FR,2022,Thiviers,2870
894,45.467,0.783,2022-06-20 20:52:00,FR,2022,Saint-Jory-de-Chalais,581
895,45.383,0.708,2022-06-20 20:52:00,FR,2022,Brantme en Prigord,3694
896,43.305,-0.378,2022-06-20 20:47:00,FR,2022,Billre,13229
897,45.433,0.667,2022-06-20 20:47:00,FR,2022,Brantme en Prigord,3694
898,45.283,0.75,2022-06-20 20:45:00,FR,2022,Agonac,1791
899,45.417,0.567,2022-06-20 20:45:00,FR,2022,Mareuil en Prigord,2290
900,45.35,0.533,2022-06-20 20:43:00,FR,2022,Brantme en Prigord,3694
901,45.287,0.638,2022-06-20 20:42:00,FR,2022,Agonac,1791
902,45.3,0.55,2022-06-20 20:39:00,FR,2022,Tocane-Saint-Apre,1738
903,45.333,0.483,2022-06-20 20:38:00,FR,2022,Tocane-Saint-Apre,1738
904,45.278,0.548,2022-06-20 20:38:00,FR,2022,Tocane-Saint-Apre,1738
905,45.333,0.433,2022-06-20 20:36:00,FR,2022,Tocane-Saint-Apre,1738
906,43.233,-0.483,2022-06-20 20:35:00,FR,2022,Gan,5594
907,45.333,0.4,2022-06-20 20:33:00,FR,2022,Tocane-Saint-Apre,1738
908,45.283,0.483,2022-06-20 20:32:00,FR,2022,Tocane-Saint-Apre,1738
909,45.3,0.35,2022-06-20 20:31:00,FR,2022,Tocane-Saint-Apre,1738
910,45.267,0.483,2022-06-20 20:30:00,FR,2022,Tocane-Saint-Apre,1738
911,45.25,0.5,2022-06-20 20:30:00,FR,2022,Tocane-Saint-Apre,1738
912,45.283,0.3,2022-06-20 20:28:00,FR,2022,Tocane-Saint-Apre,1738
913,45.267,0.367,2022-06-20 20:25:00,FR,2022,Tocane-Saint-Apre,1738
914,45.25,0.417,2022-06-20 20:25:00,FR,2022,Tocane-Saint-Apre,1738
915,45.217,0.417,2022-06-20 20:25:00,FR,2022,Tocane-Saint-Apre,1738
916,45.25,0.333,2022-06-20 20:20:00,FR,2022,Tocane-Saint-Apre,1738
917,45.183,0.35,2022-06-20 20:18:00,FR,2022,Tocane-Saint-Apre,1738
918,45.229,0.274,2022-06-20 20:18:00,FR,2022,Tocane-Saint-Apre,1738
919,45.167,0.25,2022-06-20 20:18:00,FR,2022,Saint-Front-de-Pradoux,1178
920,45.15,0.317,2022-06-20 20:18:00,FR,2022,Saint-Front-de-Pradoux,1178
921,45.217,0.283,2022-06-20 20:16:00,FR,2022,Tocane-Saint-Apre,1738
922,45.25,0.25,2022-06-20 20:16:00,FR,2022,Tocane-Saint-Apre,1738
923,45.632,0.152,2022-06-20 20:15:00,FR,2022,Angoulme,41407
924,45.117,0.233,2022-06-20 20:13:00,FR,2022,Saint-Front-de-Pradoux,1178
925,45.233,0.217,2022-06-20 20:12:00,FR,2022,Saint-Aigulin,1887
926,45.15,0.167,2022-06-20 20:10:00,FR,2022,Montpon-Mnestrol,5807
927,45.203,0.139,2022-06-20 20:09:00,FR,2022,Saint-Aigulin,1887
928,45.15,0.017,2022-06-20 20:01:00,FR,2022,Saint-Aigulin,1887
929,45.033,0.017,2022-06-20 20:00:00,FR,2022,Saint-Seurin-sur-l'Isle,3134
930,43.4,0.2,2022-06-20 19:55:00,FR,2022,Orleix,1953
931,45.091,-0.084,2022-06-20 19:55:00,FR,2022,Coutras,8623
932,45.1,-0.05,2022-06-20 19:53:00,FR,2022,Saint-Aigulin,1887
933,43.533,0.167,2022-06-20 19:50:00,FR,2022,Plaisance,1416
934,43.417,0.167,2022-06-20 19:50:00,FR,2022,Orleix,1953
935,45.033,-0.133,2022-06-20 19:50:00,FR,2022,Coutras,8623
936,43.481,0.299,2022-06-20 19:50:00,FR,2022,Mirande,3445
937,45.069,-0.087,2022-06-20 19:48:00,FR,2022,Coutras,8623
938,43.467,0.283,2022-06-20 19:47:00,FR,2022,Mirande,3445
939,43.435,0.186,2022-06-20 19:45:00,FR,2022,Orleix,1953
940,43.467,0.25,2022-06-20 19:45:00,FR,2022,Mirande,3445
941,43.467,0.217,2022-06-20 19:45:00,FR,2022,Mirande,3445
942,44.991,-0.206,2022-06-20 19:45:00,FR,2022,Saint-Denis-de-Pile,5791
943,45.035,-0.231,2022-06-20 19:45:00,FR,2022,Saint-Denis-de-Pile,5791
944,43.383,0.15,2022-06-20 19:43:00,FR,2022,Orleix,1953
945,43.433,0.15,2022-06-20 19:43:00,FR,2022,Orleix,1953
946,45.033,-0.267,2022-06-20 19:43:00,FR,2022,Villegouge,1287
947,43.425,0.198,2022-06-20 19:43:00,FR,2022,Orleix,1953
948,44.983,-0.267,2022-06-20 19:42:00,FR,2022,Villegouge,1287
949,45.1,-0.389,2022-06-20 19:42:00,FR,2022,Cavignac,2292
950,43.412,0.117,2022-06-20 19:41:00,FR,2022,Orleix,1953
951,45.057,-0.337,2022-06-20 19:41:00,FR,2022,Gauriaguet,1432
952,43.35,0.1,2022-06-20 19:40:00,FR,2022,Orleix,1953
953,45.017,-0.317,2022-06-20 19:39:00,FR,2022,Villegouge,1287
954,45.067,-0.383,2022-06-20 19:39:00,FR,2022,Gauriaguet,1432
955,43.4,0.083,2022-06-20 19:37:00,FR,2022,Orleix,1953
956,44.983,-0.333,2022-06-20 19:37:00,FR,2022,Villegouge,1287
957,45.072,-0.408,2022-06-20 19:37:00,FR,2022,Cubnezais,1726
958,45.045,-0.428,2022-06-20 19:35:00,FR,2022,Gauriaguet,1432
959,45.041,-0.395,2022-06-20 19:35:00,FR,2022,Gauriaguet,1432
960,45.015,-0.382,2022-06-20 19:34:00,FR,2022,Gauriaguet,1432
961,43.383,0.133,2022-06-20 19:33:00,FR,2022,Orleix,1953
962,45.018,-0.402,2022-06-20 19:33:00,FR,2022,Gauriaguet,1432
963,43.414,0.101,2022-06-20 19:32:00,FR,2022,Orleix,1953
964,44.995,-0.444,2022-06-20 19:32:00,FR,2022,Saint-Andr-de-Cubzac,12735
965,44.965,-0.4,2022-06-20 19:32:00,FR,2022,Saint-Andr-de-Cubzac,12735
966,43.383,0.05,2022-06-20 19:31:00,FR,2022,Orleix,1953
967,43.379,0.057,2022-06-20 19:31:00,FR,2022,Orleix,1953
968,43.367,0.083,2022-06-20 19:31:00,FR,2022,Orleix,1953
969,43.35,0.067,2022-06-20 19:31:00,FR,2022,Orleix,1953
970,43.367,0.05,2022-06-20 19:30:00,FR,2022,Bordres-sur-l'chez,5421
971,45.03,-0.45,2022-06-20 19:30:00,FR,2022,Saint-Gervais,1919
972,45.015,-0.466,2022-06-20 19:30:00,FR,2022,Saint-Gervais,1919
973,45.049,-0.502,2022-06-20 19:30:00,FR,2022,Bourg,2303
974,44.971,-0.454,2022-06-20 19:30:00,FR,2022,Saint-Andr-de-Cubzac,12735
975,44.955,-0.468,2022-06-20 19:28:00,FR,2022,Ambars-et-Lagrave,16591
976,44.932,-0.491,2022-06-20 19:26:00,FR,2022,Ambars-et-Lagrave,16591
977,43.324,-0.006,2022-06-20 19:25:00,FR,2022,Bordres-sur-l'chez,5421
978,43.35,0.0,2022-06-20 19:25:00,FR,2022,Bordres-sur-l'chez,5421
979,43.329,-0.04,2022-06-20 19:21:00,FR,2022,Bordres-sur-l'chez,5421
980,44.869,-0.611,2022-06-20 19:20:00,FR,2022,Le Bouscat,24006
981,43.283,-0.083,2022-06-20 19:20:00,FR,2022,Ibos,2905
982,45.017,-0.533,2022-06-20 19:20:00,FR,2022,Ambs,3123
983,44.983,-0.6,2022-06-20 19:20:00,FR,2022,Ludon-Mdoc,5252
984,43.346,-0.079,2022-06-20 19:20:00,FR,2022,Ibos,2905
985,43.283,-0.167,2022-06-20 19:18:00,FR,2022,Bordes,2888
986,43.279,-0.112,2022-06-20 19:18:00,FR,2022,Pontacq,2921
987,43.298,-0.146,2022-06-20 19:16:00,FR,2022,Morlas,4353
988,43.312,-0.125,2022-06-20 19:16:00,FR,2022,Morlas,4353
989,43.33,-0.133,2022-06-20 19:16:00,FR,2022,Morlas,4353
990,43.34,-0.171,2022-06-20 19:16:00,FR,2022,Morlas,4353
991,43.317,0.0,2022-06-20 19:15:00,FR,2022,Bordres-sur-l'chez,5421
992,43.283,-0.183,2022-06-20 19:15:00,FR,2022,Bordes,2888
993,44.95,-0.583,2022-06-20 19:15:00,FR,2022,Parempuyre,9786
994,43.31,-0.156,2022-06-20 19:15:00,FR,2022,Morlas,4353
995,44.883,-0.611,2022-06-20 19:15:00,FR,2022,Bruges,19863
996,43.267,-0.183,2022-06-20 19:13:00,FR,2022,Bordes,2888
997,43.25,-0.167,2022-06-20 19:13:00,FR,2022,Bnjacq,1951
998,43.267,-0.209,2022-06-20 19:13:00,FR,2022,Bordes,2888
999,43.304,-0.227,2022-06-20 19:12:00,FR,2022,Morlas,4353
1000,44.917,-0.633,2022-06-20 19:10:00,FR,2022,Blanquefort,15276
1001,43.267,-0.25,2022-06-20 19:10:00,FR,2022,Bordes,2888
1002,44.883,-0.65,2022-06-20 19:10:00,FR,2022,Eysines,24202
1003,44.851,-0.617,2022-06-20 19:10:00,FR,2022,Le Bouscat,24006
1004,44.8,-0.617,2022-06-20 19:10:00,FR,2022,Talence,44359
1005,44.9,-0.733,2022-06-20 19:09:00,FR,2022,Saint-Aubin-de-Mdoc,7574
1006,43.297,-0.26,2022-06-20 19:09:00,FR,2022,Idron,4915
1007,44.833,-0.633,2022-06-20 19:07:00,FR,2022,Mrignac,74009
1008,45.383,-0.236,2022-06-20 19:07:00,FR,2022,Baignes-Sainte-Radegonde,1235
1009,44.833,-0.767,2022-06-20 19:05:00,FR,2022,Martignas-sur-Jalle,7741
1010,44.809,-0.781,2022-06-20 19:05:00,FR,2022,Saint-Jean-d'Illac,9106
1011,43.2,0.217,2022-06-20 19:04:00,FR,2022,Smac,5165
1012,43.283,-0.267,2022-06-20 19:04:00,FR,2022,Idron,4915
1013,43.205,-0.295,2022-06-20 19:02:00,FR,2022,Bordes,2888
1014,45.617,-0.333,2022-06-20 19:02:00,FR,2022,Gent,886
1015,43.229,-0.307,2022-06-20 19:02:00,FR,2022,Bordes,2888
1016,45.633,-0.367,2022-06-20 19:01:00,FR,2022,Gimeux,719
1017,43.249,-0.299,2022-06-20 19:01:00,FR,2022,Bordes,2888
1018,43.283,-0.317,2022-06-20 19:00:00,FR,2022,Idron,4915
1019,43.25,-0.167,2022-06-20 19:00:00,FR,2022,Bnjacq,1951
1020,43.217,-0.367,2022-06-20 19:00:00,FR,2022,Gan,5594
1021,45.6,-0.3,2022-06-20 19:00:00,FR,2022,Gent,886
1022,45.617,-0.317,2022-06-20 19:00:00,FR,2022,Gent,886
1023,45.567,-0.333,2022-06-20 19:00:00,FR,2022,Germignac,647
1024,45.6,-0.3,2022-06-20 19:00:00,FR,2022,Gent,886
1025,43.252,-0.32,2022-06-20 19:00:00,FR,2022,Bordes,2888
1026,43.233,-0.383,2022-06-20 18:59:00,FR,2022,Gelos,3639
1027,45.317,-0.417,2022-06-20 18:55:00,FR,2022,Montendre,3222
1028,42.978,-0.749,2022-06-20 18:55:00,FR,2022,Oloron-Sainte-Marie,10653
1029,43.183,-0.267,2022-06-20 18:55:00,FR,2022,Bnjacq,1951
1030,45.583,-0.267,2022-06-20 18:55:00,FR,2022,Germignac,647
1031,43.167,-0.383,2022-06-20 18:50:00,FR,2022,Gan,5594
1032,45.567,-0.4,2022-06-20 18:49:00,FR,2022,Germignac,647
1033,43.167,-0.45,2022-06-20 18:49:00,FR,2022,Gan,5594
1034,45.483,-0.367,2022-06-20 18:47:00,FR,2022,Arthenac,350
1035,44.679,-1.013,2022-06-20 18:46:00,FR,2022,Biganos,11065
1036,44.704,-1.038,2022-06-20 18:46:00,FR,2022,Andernos-les-Bains,12284
1037,43.133,-0.459,2022-06-20 18:46:00,FR,2022,Arudy,2253
1038,45.517,-0.483,2022-06-20 18:45:00,FR,2022,Avy,470
1039,43.138,-0.475,2022-06-20 18:45:00,FR,2022,Arudy,2253
1040,43.15,-0.5,2022-06-20 18:44:00,FR,2022,Arudy,2253
1041,45.314,-0.539,2022-06-20 18:44:00,FR,2022,Mirambeau,1520
1042,45.483,-0.5,2022-06-20 18:43:00,FR,2022,Saint-Germain-de-Lusignan,1295
1043,45.234,-0.508,2022-06-20 18:41:00,FR,2022,Reignac,1613
1044,43.111,-0.611,2022-06-20 18:38:00,FR,2022,Oloron-Sainte-Marie,10653
1045,45.367,-0.567,2022-06-20 18:35:00,FR,2022,Mirambeau,1520
1046,45.267,-0.567,2022-06-20 18:33:00,FR,2022,Reignac,1613
1047,45.483,-0.567,2022-06-20 18:32:00,FR,2022,Avy,470
1048,45.396,-0.595,2022-06-20 18:31:00,FR,2022,Mirambeau,1520
1049,45.283,-0.567,2022-06-20 18:30:00,FR,2022,Reignac,1613
1050,45.285,-0.409,2022-06-20 18:30:00,FR,2022,Montendre,3222
1051,45.386,-0.624,2022-06-20 18:28:00,FR,2022,Mirambeau,1520
1052,45.423,-0.64,2022-06-20 18:28:00,FR,2022,Mirambeau,1520
1053,45.317,-0.817,2022-06-20 18:15:00,FR,2022,Lesparre-Mdoc,5826
1054,45.283,-0.783,2022-06-20 18:15:00,FR,2022,Saint-Ciers-sur-Gironde,3029
1055,45.261,-0.775,2022-06-20 18:14:00,FR,2022,Pauillac,5084
1056,45.3,-0.833,2022-06-20 18:10:00,FR,2022,Lesparre-Mdoc,5826
1057,45.283,-0.867,2022-06-20 18:10:00,FR,2022,Lesparre-Mdoc,5826
1058,45.25,-1.033,2022-06-20 18:07:00,FR,2022,Hourtin,3967
1059,45.195,-1.015,2022-06-20 18:05:00,FR,2022,Hourtin,3967
1060,45.2,-1.067,2022-06-20 18:00:00,FR,2022,Hourtin,3967
1061,44.983,-1.083,2022-06-20 18:00:00,FR,2022,Lacanau,5064
1062,48.636,3.287,2022-06-19 23:00:00,FR,2022,Provins,12115
1063,48.348,2.976,2022-06-19 22:02:00,FR,2022,Montereau-Fault-Yonne,21888
1064,48.867,3.367,2022-06-19 21:56:00,FR,2022,Viels-Maisons,1214
1065,48.85,3.233,2022-06-19 21:46:00,FR,2022,La Fert-Gaucher,4877
1066,48.783,3.3,2022-06-19 21:39:00,FR,2022,La Fert-Gaucher,4877
1067,43.398,-0.433,2022-06-19 21:37:00,FR,2022,Sauvagnon,3460
1068,48.767,3.217,2022-06-19 21:34:00,FR,2022,La Fert-Gaucher,4877
1069,48.733,3.2,2022-06-19 21:31:00,FR,2022,La Fert-Gaucher,4877
1070,48.703,3.243,2022-06-19 21:30:00,FR,2022,La Fert-Gaucher,4877
1071,48.186,2.74,2022-06-19 21:28:00,FR,2022,Souppes-sur-Loing,5253
1072,48.583,3.067,2022-06-19 21:02:00,FR,2022,Nangis,8904
1073,48.555,3.015,2022-06-19 21:00:00,FR,2022,Nangis,8904
1074,48.511,2.97,2022-06-19 20:56:00,FR,2022,Nangis,8904
1075,47.583,1.65,2022-06-19 20:45:00,FR,2022,Huisseau-sur-Cosson,2322
1076,48.463,2.945,2022-06-19 20:45:00,FR,2022,Montereau-Fault-Yonne,21888
1077,47.567,1.604,2022-06-19 20:42:00,FR,2022,Huisseau-sur-Cosson,2322
1078,47.55,1.55,2022-06-19 20:40:00,FR,2022,Huisseau-sur-Cosson,2322
1079,47.508,1.551,2022-06-19 20:36:00,FR,2022,Soings-en-Sologne,1618
1080,47.538,1.503,2022-06-19 20:35:00,FR,2022,Huisseau-sur-Cosson,2322
1081,45.883,0.9,2022-06-19 20:32:00,FR,2022,Saint-Junien,11295
1082,48.388,2.846,2022-06-19 20:32:00,FR,2022,Vernou-la-Celle-sur-Seine,2630
1083,47.489,1.504,2022-06-19 20:31:00,FR,2022,Soings-en-Sologne,1618
1084,48.4,2.834,2022-06-19 20:31:00,FR,2022,Vernou-la-Celle-sur-Seine,2630
1085,48.414,2.732,2022-06-19 20:30:00,FR,2022,Avon,13545
1086,47.512,1.458,2022-06-19 20:30:00,FR,2022,Huisseau-sur-Cosson,2322
1087,48.379,2.795,2022-06-19 20:30:00,FR,2022,Moret-Loing-et-Orvanne,12507
1088,48.395,2.803,2022-06-19 20:30:00,FR,2022,Samoreau,2441
1089,48.387,2.812,2022-06-19 20:30:00,FR,2022,Moret-Loing-et-Orvanne,12507
1090,48.372,2.817,2022-06-19 20:29:00,FR,2022,Moret-Loing-et-Orvanne,12507
1091,47.85,2.267,2022-06-19 20:26:00,FR,2022,Chteauneuf-sur-Loire,8382
1092,48.338,2.747,2022-06-19 20:26:00,FR,2022,Montigny-sur-Loing,2640
1093,45.817,0.817,2022-06-19 20:24:00,FR,2022,Rochechouart,3725
1094,48.321,2.747,2022-06-19 20:24:00,FR,2022,Montigny-sur-Loing,2640
1095,46.694,1.697,2022-06-19 20:23:00,FR,2022,Le Poinonnet,5836
1096,46.688,1.649,2022-06-19 20:22:00,FR,2022,Luant,1544
1097,48.301,2.703,2022-06-19 20:20:00,FR,2022,Saint-Pierre-ls-Nemours,5408
1098,47.832,2.179,2022-06-19 20:17:00,FR,2022,Jargeau,4688
1099,48.316,2.688,2022-06-19 20:16:00,FR,2022,Montigny-sur-Loing,2640
1100,48.267,2.7,2022-06-19 20:15:00,FR,2022,Saint-Pierre-ls-Nemours,5408
1101,48.267,2.683,2022-06-19 20:12:00,FR,2022,Saint-Pierre-ls-Nemours,5408
1102,46.583,1.517,2022-06-19 20:05:00,FR,2022,Argenton-sur-Creuse,4865
1103,46.56,1.611,2022-06-19 20:05:00,FR,2022,Le Pchereau,1854
1104,46.583,1.55,2022-06-19 20:03:00,FR,2022,Le Pchereau,1854
1105,46.588,1.535,2022-06-19 20:03:00,FR,2022,Le Pchereau,1854
1106,46.54,1.59,2022-06-19 20:03:00,FR,2022,Le Pchereau,1854
1107,46.601,1.515,2022-06-19 20:03:00,FR,2022,Argenton-sur-Creuse,4865
1108,46.144,1.514,2022-06-19 20:02:00,FR,2022,La Souterraine,4953
1109,46.569,1.534,2022-06-19 20:02:00,FR,2022,Le Pchereau,1854
1110,48.203,2.547,2022-06-19 20:02:00,FR,2022,Puiseaux,3413
1111,46.55,1.567,2022-06-19 20:01:00,FR,2022,Le Pchereau,1854
1112,48.187,2.548,2022-06-19 20:01:00,FR,2022,Puiseaux,3413
1113,46.523,1.579,2022-06-19 20:00:00,FR,2022,Le Pchereau,1854
1114,47.951,3.438,2022-06-19 20:00:00,FR,2022,Migennes,7274
1115,47.953,3.406,2022-06-19 20:00:00,FR,2022,Montholon,2814
1116,48.185,2.527,2022-06-19 20:00:00,FR,2022,Puiseaux,3413
1117,46.517,1.45,2022-06-19 19:58:00,FR,2022,Argenton-sur-Creuse,4865
1118,48.186,2.496,2022-06-19 19:58:00,FR,2022,Puiseaux,3413
1119,46.517,1.5,2022-06-19 19:56:00,FR,2022,Argenton-sur-Creuse,4865
1120,46.517,1.483,2022-06-19 19:56:00,FR,2022,Argenton-sur-Creuse,4865
1121,48.204,2.47,2022-06-19 19:55:00,FR,2022,Puiseaux,3413
1122,48.139,2.479,2022-06-19 19:51:00,FR,2022,Puiseaux,3413
1123,48.151,2.448,2022-06-19 19:51:00,FR,2022,Puiseaux,3413
1124,48.142,2.489,2022-06-19 19:51:00,FR,2022,Puiseaux,3413
1125,45.267,1.767,2022-06-19 19:50:00,FR,2022,Tulle,14314
1126,48.117,2.417,2022-06-19 19:48:00,FR,2022,Boynes,1326
1127,47.701,2.023,2022-06-19 19:47:00,FR,2022,Mnestreau-en-Villette,1401
1128,46.05,1.467,2022-06-19 19:46:00,FR,2022,Ambazac,5556
1129,43.583,-0.017,2022-06-19 19:45:00,FR,2022,Plaisance,1416
1130,43.6,-0.133,2022-06-19 19:45:00,FR,2022,Plaisance,1416
1131,46.469,1.39,2022-06-19 19:45:00,FR,2022,guzon-Chantme,1325
1132,43.572,-0.105,2022-06-19 19:43:00,FR,2022,Plaisance,1416
1133,43.55,-0.05,2022-06-19 19:42:00,FR,2022,Plaisance,1416
1134,43.55,-0.167,2022-06-19 19:40:00,FR,2022,Plaisance,1416
1135,43.559,-0.149,2022-06-19 19:40:00,FR,2022,Plaisance,1416
1136,43.55,-0.117,2022-06-19 19:40:00,FR,2022,Plaisance,1416
1137,48.067,2.433,2022-06-19 19:39:00,FR,2022,Boynes,1326
1138,46.433,1.3,2022-06-19 19:38:00,FR,2022,guzon-Chantme,1325
1139,43.537,-0.143,2022-06-19 19:38:00,FR,2022,Plaisance,1416
1140,43.533,-0.15,2022-06-19 19:37:00,FR,2022,Plaisance,1416
1141,43.5,-0.167,2022-06-19 19:36:00,FR,2022,Morlas,4353
1142,45.933,1.283,2022-06-19 19:36:00,FR,2022,Couzeix,9612
1143,48.067,2.383,2022-06-19 19:36:00,FR,2022,Boynes,1326
1144,48.112,2.401,2022-06-19 19:36:00,FR,2022,Boynes,1326
1145,48.067,2.333,2022-06-19 19:35:00,FR,2022,Boynes,1326
1146,43.533,-0.183,2022-06-19 19:35:00,FR,2022,Aire-sur-l'Adour,6197
1147,48.063,2.374,2022-06-19 19:34:00,FR,2022,Boynes,1326
1148,48.045,2.348,2022-06-19 19:33:00,FR,2022,Boynes,1326
1149,48.05,2.3,2022-06-19 19:32:00,FR,2022,Boynes,1326
1150,45.873,1.254,2022-06-19 19:31:00,FR,2022,Limoges,130592
1151,45.933,1.183,2022-06-19 19:31:00,FR,2022,Couzeix,9612
1152,48.017,2.333,2022-06-19 19:31:00,FR,2022,Boynes,1326
1153,43.917,0.9,2022-06-19 19:31:00,FR,2022,Beaumont-de-Lomagne,3778
1154,45.867,1.233,2022-06-19 19:30:00,FR,2022,Limoges,130592
1155,45.9,1.267,2022-06-19 19:30:00,FR,2022,Couzeix,9612
1156,43.467,-0.233,2022-06-19 19:30:00,FR,2022,Serres-Castet,4393
1157,46.828,1.564,2022-06-19 19:30:00,FR,2022,Niherne,1529
1158,46.847,1.537,2022-06-19 19:30:00,FR,2022,Villedieu-sur-Indre,2679
1159,43.441,-0.229,2022-06-19 19:29:00,FR,2022,Morlas,4353
1160,47.629,1.597,2022-06-19 19:28:00,FR,2022,Huisseau-sur-Cosson,2322
1161,47.667,3.818,2022-06-19 19:28:00,FR,2022,Avallon,6414
1162,47.989,2.214,2022-06-19 19:27:00,FR,2022,Chteauneuf-sur-Loire,8382
1163,45.841,1.194,2022-06-19 19:26:00,FR,2022,Isle,7869
1164,45.917,1.133,2022-06-19 19:26:00,FR,2022,Verneuil-sur-Vienne,4886
1165,45.868,1.179,2022-06-19 19:26:00,FR,2022,Couzeix,9612
1166,43.383,-0.3,2022-06-19 19:22:00,FR,2022,Montardon,2340
1167,47.66,3.709,2022-06-19 19:21:00,FR,2022,Auxerre,34151
1168,45.817,1.1,2022-06-19 19:20:00,FR,2022,Aixe-sur-Vienne,5809
1169,43.362,-0.347,2022-06-19 19:20:00,FR,2022,Montardon,2340
1170,47.967,2.183,2022-06-19 19:20:00,FR,2022,Donnery,2854
1171,45.9,1.117,2022-06-19 19:19:00,FR,2022,Verneuil-sur-Vienne,4886
1172,45.85,1.133,2022-06-19 19:18:00,FR,2022,Verneuil-sur-Vienne,4886
1173,45.867,1.083,2022-06-19 19:18:00,FR,2022,Verneuil-sur-Vienne,4886
1174,47.621,3.741,2022-06-19 19:18:00,FR,2022,Avallon,6414
1175,43.383,-0.35,2022-06-19 19:17:00,FR,2022,Serres-Castet,4393
1176,45.8,1.133,2022-06-19 19:16:00,FR,2022,Aixe-sur-Vienne,5809
1177,47.95,2.05,2022-06-19 19:15:00,FR,2022,Vennecy,1974
1178,47.599,3.68,2022-06-19 19:15:00,FR,2022,Clamecy,228
1179,47.599,3.68,2022-06-19 19:15:00,FR,2022,Clamecy,3594
1180,45.767,1.083,2022-06-19 19:14:00,FR,2022,Aixe-sur-Vienne,5809
1181,47.933,2.133,2022-06-19 19:11:00,FR,2022,Donnery,2854
1182,45.767,0.95,2022-06-19 19:10:00,FR,2022,Rochechouart,3725
1183,47.898,2.026,2022-06-19 19:10:00,FR,2022,Chcy,8699
1184,47.911,2.111,2022-06-19 19:10:00,FR,2022,Donnery,2854
1185,47.901,2.067,2022-06-19 19:10:00,FR,2022,Donnery,2854
1186,47.419,1.433,2022-06-19 19:09:00,FR,2022,Le Controis-en-Sologne,6663
1187,45.833,1.0,2022-06-19 19:08:00,FR,2022,Verneuil-sur-Vienne,4886
1188,47.421,1.671,2022-06-19 19:08:00,FR,2022,Romorantin-Lanthenay,18206
1189,47.923,2.007,2022-06-19 19:07:00,FR,2022,Boigny-sur-Bionne,2105
1190,47.919,1.974,2022-06-19 19:05:00,FR,2022,Saint-Jean-de-Braye,21396
1191,47.872,2.047,2022-06-19 19:05:00,FR,2022,Chcy,8699
1192,44.4,0.717,2022-06-19 19:04:00,FR,2022,Villeneuve-sur-Lot,21690
1193,44.414,0.669,2022-06-19 19:00:00,FR,2022,Casseneuil,2402
1194,47.833,1.967,2022-06-19 19:00:00,FR,2022,Sandillon,4186
1195,47.877,1.963,2022-06-19 19:00:00,FR,2022,Saint-Denis-en-Val,7633
1196,47.842,2.026,2022-06-19 18:59:00,FR,2022,Sandillon,4186
1197,47.367,1.617,2022-06-19 18:59:00,FR,2022,Soings-en-Sologne,1618
1198,46.983,1.617,2022-06-19 18:58:00,FR,2022,Vineuil,1234
1199,46.983,1.617,2022-06-19 18:58:00,FR,2022,Vineuil,8084
1200,47.864,1.902,2022-06-19 18:58:00,FR,2022,Olivet,22503
1201,47.35,1.583,2022-06-19 18:57:00,FR,2022,Soings-en-Sologne,1618
1202,47.827,1.927,2022-06-19 18:57:00,FR,2022,Olivet,22503
1203,44.45,0.617,2022-06-19 18:55:00,FR,2022,Casseneuil,2402
1204,47.778,1.873,2022-06-19 18:48:00,FR,2022,La Fert-Saint-Aubin,7371
1205,47.267,1.55,2022-06-19 18:47:00,FR,2022,Selles-sur-Cher,4459
1206,47.312,1.539,2022-06-19 18:47:00,FR,2022,Selles-sur-Cher,4459
1207,46.933,1.433,2022-06-19 18:46:00,FR,2022,Buzanais,4507
1208,44.5,0.667,2022-06-19 18:45:00,FR,2022,Casseneuil,2402
1209,47.75,1.817,2022-06-19 18:45:00,FR,2022,Lailly-en-Val,3101
1210,47.65,1.667,2022-06-19 18:44:00,FR,2022,Lailly-en-Val,3101
1211,46.883,1.417,2022-06-19 18:42:00,FR,2022,Buzanais,4507
1212,47.683,1.783,2022-06-19 18:35:00,FR,2022,Lailly-en-Val,3101
1213,46.8,1.35,2022-06-19 18:31:00,FR,2022,Buzanais,4507
1214,47.612,1.518,2022-06-19 18:25:00,FR,2022,Huisseau-sur-Cosson,2322
1215,47.5,1.467,2022-06-19 18:15:00,FR,2022,Huisseau-sur-Cosson,2322
1216,47.583,1.333,2022-06-19 18:10:00,FR,2022,Blois,46660
1217,47.39,1.379,2022-06-19 18:02:00,FR,2022,Le Controis-en-Sologne,6663
1218,47.367,1.4,2022-06-18 20:15:00,FR,2022,Le Controis-en-Sologne,6663
1219,47.383,1.383,2022-06-18 20:15:00,FR,2022,Le Controis-en-Sologne,6663
1220,44.917,-0.433,2022-06-18 19:10:00,FR,2022,Saint-Loubs,9953
1221,44.85,-0.433,2022-06-18 19:00:00,FR,2022,Pompignac,3301
1222,44.8,-0.617,2022-06-18 18:30:00,FR,2022,Talence,44359
1223,44.75,-0.533,2022-06-18 18:25:00,FR,2022,Villenave-d'Ornon,38444
1224,44.733,-0.6,2022-06-18 18:15:00,FR,2022,Lognan,10641
1225,46.9,5.767,2022-06-15 20:35:00,FR,2022,Poligny,4013
1226,42.583,2.817,2022-06-06 17:25:00,FR,2022,Bages,4453
1227,42.567,2.833,2022-06-06 17:25:00,FR,2022,Bages,4453
1228,42.579,2.779,2022-06-06 17:20:00,FR,2022,Thuir,8057
1229,48.65,-0.1,2022-06-05 17:30:00,FR,2022,couch-les-Valles,2200
1230,44.643,4.873,2022-06-05 12:20:00,FR,2022,Les Tourrettes,1034
1231,44.657,4.764,2022-06-05 12:05:00,FR,2022,Les Tourrettes,1034
1232,45.917,6.867,2022-06-05 10:10:00,FR,2022,Chamonix-Mont-Blanc,8644
1233,45.691,6.69,2022-06-05 09:55:00,FR,2022,Bourg-Saint-Maurice,7160
1234,45.867,6.617,2022-06-05 09:50:00,FR,2022,Megve,2999
1235,45.944,6.632,2022-06-05 09:50:00,FR,2022,Sallanches,16986
1236,45.718,6.573,2022-06-05 09:49:00,FR,2022,Beaufort,2024
1237,45.685,6.569,2022-06-05 09:48:00,FR,2022,Beaufort,2024
1238,45.651,6.581,2022-06-05 09:48:00,FR,2022,Beaufort,2024
1239,45.867,6.5,2022-06-05 09:38:00,FR,2022,Megve,2999
1240,45.683,6.383,2022-06-05 09:30:00,FR,2022,Albertville,19830
1241,45.634,6.312,2022-06-05 09:21:00,FR,2022,Mercury,3351
1242,45.6,6.256,2022-06-05 09:20:00,FR,2022,Saint-Pierre-d'Albigny,4168
1243,45.779,6.35,2022-06-05 09:20:00,FR,2022,Ugine,7135
1244,45.583,6.2,2022-06-05 09:19:00,FR,2022,Saint-Pierre-d'Albigny,4168
1245,45.567,6.15,2022-06-05 09:18:00,FR,2022,Saint-Pierre-d'Albigny,4168
1246,45.55,6.133,2022-06-05 09:17:00,FR,2022,Saint-Pierre-d'Albigny,4168
1247,45.517,6.083,2022-06-05 09:16:00,FR,2022,Montmlian,4064
1248,45.5,6.067,2022-06-05 09:13:00,FR,2022,Montmlian,4064
1249,45.5,6.067,2022-06-05 09:10:00,FR,2022,Montmlian,4064
1250,45.501,6.015,2022-06-05 09:07:00,FR,2022,Porte-de-Savoie,3830
1251,45.533,6.055,2022-06-05 09:06:00,FR,2022,Montmlian,4064
1252,45.463,5.993,2022-06-05 09:00:00,FR,2022,Chapareillan,2975
1253,48.156,3.233,2022-06-05 08:52:00,FR,2022,Paron,4825
1254,45.362,5.592,2022-06-05 08:25:00,FR,2022,Voiron,20332
1255,45.379,5.546,2022-06-05 08:25:00,FR,2022,Saint-Blaise-du-Buis,1084
1256,48.584,7.436,2022-06-05 00:10:00,FR,2022,Wasselonne,5755
1257,48.317,6.9,2022-06-04 23:03:00,FR,2022,Saint-Di-des-Vosges,19490
1258,48.25,6.417,2022-06-04 22:47:00,FR,2022,Thaon-les-Vosges,8583
1259,47.2,4.533,2022-06-04 22:45:00,FR,2022,Pouilly-en-Auxois,1537
1260,45.75,3.55,2022-06-04 22:45:00,FR,2022,Courpire,4005
1261,45.917,3.333,2022-06-04 22:40:00,FR,2022,Ennezat,2532
1262,48.1,6.45,2022-06-04 22:15:00,FR,2022,Hadol,2357
1263,46.1,3.633,2022-06-04 21:55:00,FR,2022,La Chapelle,388
1264,46.833,3.983,2022-06-04 21:45:00,FR,2022,Luzy,1994
1265,48.033,5.967,2022-06-04 21:23:00,FR,2022,Vittel,4805
1266,46.249,3.632,2022-06-04 20:45:00,FR,2022,Lapalisse,3137
1267,46.258,3.514,2022-06-04 20:35:00,FR,2022,Sanssat,278
1268,46.179,3.518,2022-06-04 20:34:00,FR,2022,Creuzier-le-Neuf,1219
1269,46.221,3.515,2022-06-04 20:34:00,FR,2022,Magnet,1035
1270,46.221,3.531,2022-06-04 20:34:00,FR,2022,Magnet,1035
1271,46.193,3.517,2022-06-04 20:33:00,FR,2022,Magnet,1035
1272,46.221,3.515,2022-06-04 20:33:00,FR,2022,Magnet,1035
1273,46.212,3.505,2022-06-04 20:32:00,FR,2022,Magnet,1035
1274,46.19,3.498,2022-06-04 20:32:00,FR,2022,Creuzier-le-Neuf,1219
1275,46.206,3.487,2022-06-04 20:32:00,FR,2022,Magnet,1035
1276,46.202,3.472,2022-06-04 20:31:00,FR,2022,Creuzier-le-Neuf,1219
1277,46.153,3.459,2022-06-04 20:31:00,FR,2022,Creuzier-le-Vieux,3283
1278,46.161,3.459,2022-06-04 20:31:00,FR,2022,Creuzier-le-Vieux,3283
1279,46.204,3.499,2022-06-04 20:31:00,FR,2022,Magnet,1035
1280,46.218,3.486,2022-06-04 20:31:00,FR,2022,Magnet,1035
1281,46.198,3.448,2022-06-04 20:31:00,FR,2022,Saint-Germain-des-Fosss,3653
1282,46.159,3.437,2022-06-04 20:30:00,FR,2022,Creuzier-le-Vieux,3283
1283,46.206,3.433,2022-06-04 20:30:00,FR,2022,Saint-Germain-des-Fosss,3653
1284,46.134,3.459,2022-06-04 20:30:00,FR,2022,Cusset,12677
1285,46.179,3.453,2022-06-04 20:30:00,FR,2022,Creuzier-le-Neuf,1219
1286,46.144,3.425,2022-06-04 20:30:00,FR,2022,Vichy,25372
1287,46.149,3.439,2022-06-04 20:30:00,FR,2022,Creuzier-le-Vieux,3283
1288,46.155,3.439,2022-06-04 20:30:00,FR,2022,Creuzier-le-Vieux,3283
1289,46.154,3.43,2022-06-04 20:30:00,FR,2022,Creuzier-le-Vieux,3283
1290,46.157,3.431,2022-06-04 20:30:00,FR,2022,Creuzier-le-Vieux,3283
1291,46.168,3.437,2022-06-04 20:30:00,FR,2022,Creuzier-le-Vieux,3283
1292,46.191,3.431,2022-06-04 20:30:00,FR,2022,Saint-Germain-des-Fosss,3653
1293,46.196,3.462,2022-06-04 20:30:00,FR,2022,Creuzier-le-Neuf,1219
1294,46.161,3.417,2022-06-04 20:29:00,FR,2022,Creuzier-le-Vieux,3283
1295,46.151,3.421,2022-06-04 20:29:00,FR,2022,Creuzier-le-Vieux,3283
1296,46.186,3.419,2022-06-04 20:29:00,FR,2022,Saint-Germain-des-Fosss,3653
1297,46.178,3.415,2022-06-04 20:29:00,FR,2022,Saint-Germain-des-Fosss,3653
1298,46.125,3.423,2022-06-04 20:28:00,FR,2022,Vichy,25372
1299,46.159,3.392,2022-06-04 20:25:00,FR,2022,Charmeil,1039
1300,43.913,2.213,2022-06-04 20:25:00,FR,2022,Saint-Jury,6627
1301,46.156,3.395,2022-06-04 20:25:00,FR,2022,Charmeil,1039
1302,46.161,3.379,2022-06-04 20:25:00,FR,2022,Charmeil,1039
1303,46.166,3.384,2022-06-04 20:25:00,FR,2022,Charmeil,1039
1304,46.17,3.396,2022-06-04 20:25:00,FR,2022,Charmeil,1039
1305,46.191,3.405,2022-06-04 20:25:00,FR,2022,Saint-Rmy-en-Rollat,1758
1306,43.881,2.231,2022-06-04 20:24:00,FR,2022,Puygouzon,3534
1307,46.147,3.388,2022-06-04 20:24:00,FR,2022,Charmeil,1039
1308,46.142,3.379,2022-06-04 20:24:00,FR,2022,Charmeil,1039
1309,46.135,3.397,2022-06-04 20:24:00,FR,2022,Bellerive-sur-Allier,8844
1310,46.129,3.386,2022-06-04 20:24:00,FR,2022,Bellerive-sur-Allier,8844
1311,46.109,3.421,2022-06-04 20:24:00,FR,2022,Bellerive-sur-Allier,8844
1312,46.177,3.401,2022-06-04 20:24:00,FR,2022,Charmeil,1039
1313,46.116,3.404,2022-06-04 20:23:00,FR,2022,Bellerive-sur-Allier,8844
1314,46.183,3.392,2022-06-04 20:23:00,FR,2022,Saint-Rmy-en-Rollat,1758
1315,43.867,2.283,2022-06-04 20:23:00,FR,2022,Puygouzon,3534
1316,46.098,3.403,2022-06-04 20:23:00,FR,2022,Bellerive-sur-Allier,8844
1317,46.181,3.389,2022-06-04 20:23:00,FR,2022,Saint-Rmy-en-Rollat,1758
1318,46.1,3.367,2022-06-04 20:20:00,FR,2022,Serbannes,805
1319,46.127,3.325,2022-06-04 20:18:00,FR,2022,Serbannes,805
1320,46.587,4.112,2022-06-04 20:18:00,FR,2022,Gueugnon,6685
1321,46.107,3.337,2022-06-04 20:18:00,FR,2022,Serbannes,805
1322,46.109,3.316,2022-06-04 20:17:00,FR,2022,Serbannes,805
1323,46.098,3.331,2022-06-04 20:17:00,FR,2022,Serbannes,805
1324,46.105,3.277,2022-06-04 20:16:00,FR,2022,Biozat,879
1325,46.077,3.272,2022-06-04 20:15:00,FR,2022,Biozat,879
1326,46.142,3.268,2022-06-04 20:13:00,FR,2022,Saint-Pont,698
1327,46.167,3.242,2022-06-04 20:11:00,FR,2022,Saint-Pont,698
1328,46.062,3.216,2022-06-04 20:10:00,FR,2022,Charmes,1655
1329,46.062,3.216,2022-06-04 20:10:00,FR,2022,Charmes,387
1330,46.041,3.256,2022-06-04 20:10:00,FR,2022,Charmes,1655
1331,46.041,3.256,2022-06-04 20:10:00,FR,2022,Charmes,387
1332,46.037,3.222,2022-06-04 20:08:00,FR,2022,Aigueperse,2770
1333,46.021,3.202,2022-06-04 20:07:00,FR,2022,Aigueperse,2770
1334,46.099,3.198,2022-06-04 20:06:00,FR,2022,Gannat,5815
1335,46.137,3.216,2022-06-04 20:05:00,FR,2022,Gannat,5815
1336,46.032,3.177,2022-06-04 20:05:00,FR,2022,Aigueperse,2770
1337,46.123,3.189,2022-06-04 20:04:00,FR,2022,Gannat,5815
1338,46.07,3.164,2022-06-04 20:04:00,FR,2022,Gannat,5815
1339,46.04,3.136,2022-06-04 20:02:00,FR,2022,Aigueperse,2770
1340,46.014,3.066,2022-06-04 20:00:00,FR,2022,Saint-Bonnet-prs-Riom,2033
1341,46.025,3.098,2022-06-04 20:00:00,FR,2022,Aigueperse,2770
1342,46.056,3.085,2022-06-04 19:58:00,FR,2022,Gannat,5815
1343,44.558,2.254,2022-06-04 19:55:00,FR,2022,Decazeville,5196
1344,44.556,2.217,2022-06-04 19:55:00,FR,2022,Boisse-Penchot,520
1345,46.056,3.014,2022-06-04 19:53:00,FR,2022,Lalizolle,412
1346,46.093,2.889,2022-06-04 19:50:00,FR,2022,Lalizolle,412
1347,46.103,2.906,2022-06-04 19:50:00,FR,2022,Lalizolle,412
1348,45.995,2.998,2022-06-04 19:49:00,FR,2022,Manzat,1395
1349,46.037,2.955,2022-06-04 19:48:00,FR,2022,Manzat,1395
1350,46.077,2.929,2022-06-04 19:47:00,FR,2022,Lalizolle,412
1351,45.961,2.94,2022-06-04 19:46:00,FR,2022,Manzat,1395
1352,47.801,4.089,2022-06-04 19:46:00,FR,2022,Montbard,4831
1353,45.995,2.934,2022-06-04 19:45:00,FR,2022,Manzat,1395
1354,46.066,2.834,2022-06-04 19:45:00,FR,2022,Manzat,1395
1355,46.027,2.897,2022-06-04 19:45:00,FR,2022,Manzat,1395
1356,47.777,4.091,2022-06-04 19:45:00,FR,2022,Montbard,4831
1357,44.476,2.228,2022-06-04 19:45:00,FR,2022,Vaureilles,490
1358,44.413,2.187,2022-06-04 19:42:00,FR,2022,Vaureilles,490
1359,46.029,2.821,2022-06-04 19:41:00,FR,2022,Manzat,1395
1360,45.968,2.877,2022-06-04 19:40:00,FR,2022,Manzat,1395
1361,45.993,2.807,2022-06-04 19:39:00,FR,2022,Manzat,1395
1362,45.991,2.764,2022-06-04 19:37:00,FR,2022,Manzat,1395
1363,45.938,2.841,2022-06-04 19:35:00,FR,2022,Manzat,1395
1364,46.067,2.767,2022-06-04 19:35:00,FR,2022,La Celle,405
1365,45.96,2.794,2022-06-04 19:35:00,FR,2022,Manzat,1395
1366,45.924,2.808,2022-06-04 19:34:00,FR,2022,Manzat,1395
1367,47.697,4.043,2022-06-04 19:32:00,FR,2022,Montbard,4831
1368,45.992,2.682,2022-06-04 19:30:00,FR,2022,Manzat,1395
1369,46.365,3.66,2022-06-04 19:30:00,FR,2022,Sorbier,318
1370,47.679,4.069,2022-06-04 19:30:00,FR,2022,poisses,769
1371,47.627,4.049,2022-06-04 19:22:00,FR,2022,poisses,769
1372,46.38,3.592,2022-06-04 19:20:00,FR,2022,Sorbier,318
1373,46.353,3.587,2022-06-04 19:20:00,FR,2022,Trzelles,407
1374,45.935,2.582,2022-06-04 19:20:00,FR,2022,Manzat,1395
1375,46.326,3.562,2022-06-04 19:18:00,FR,2022,Cindr,296
1376,47.586,4.003,2022-06-04 19:18:00,FR,2022,Avallon,6414
1377,45.986,2.558,2022-06-04 19:18:00,FR,2022,Mazirat,287
1378,47.57,4.055,2022-06-04 19:17:00,FR,2022,poisses,769
1379,47.575,4.04,2022-06-04 19:17:00,FR,2022,poisses,769
1380,45.917,2.489,2022-06-04 19:15:00,FR,2022,Felletin,1547
1381,45.98,2.478,2022-06-04 19:15:00,FR,2022,Felletin,1547
1382,47.541,4.036,2022-06-04 19:12:00,FR,2022,poisses,769
1383,46.318,3.492,2022-06-04 19:10:00,FR,2022,Rongres,543
1384,46.588,3.489,2022-06-04 19:10:00,FR,2022,Lusigny,1670
1385,45.943,2.386,2022-06-04 19:10:00,FR,2022,Felletin,1547
1386,45.919,2.341,2022-06-04 19:05:00,FR,2022,Felletin,1547
1387,46.313,3.402,2022-06-04 19:04:00,FR,2022,Varennes-sur-Allier,3642
1388,47.479,4.059,2022-06-04 19:02:00,FR,2022,poisses,769
1389,47.828,0.273,2022-06-04 19:02:00,FR,2022,commoy,4752
1390,46.289,3.363,2022-06-04 19:00:00,FR,2022,Paray-sous-Briailles,618
1391,46.352,4.01,2022-06-04 19:00:00,FR,2022,Saint-Lger-sur-Vouzance,263
1392,46.362,4.064,2022-06-04 19:00:00,FR,2022,Paray-le-Monial,9218
1393,46.351,4.034,2022-06-04 19:00:00,FR,2022,Saint-Lger-sur-Vouzance,263
1394,45.918,2.285,2022-06-04 19:00:00,FR,2022,Felletin,1547
1395,45.867,2.367,2022-06-04 19:00:00,FR,2022,Felletin,1547
1396,46.45,4.117,2022-06-04 18:55:00,FR,2022,Paray-le-Monial,9218
1397,46.282,3.943,2022-06-04 18:55:00,FR,2022,Saint-Didier-en-Donjon,248
1398,46.411,4.039,2022-06-04 18:55:00,FR,2022,Chassenard,1030
1399,46.224,3.343,2022-06-04 18:53:00,FR,2022,Saint-Rmy-en-Rollat,1758
1400,46.306,3.291,2022-06-04 18:52:00,FR,2022,Saint-Pourain-sur-Sioule,5100
1401,45.783,2.168,2022-06-04 18:47:00,FR,2022,Felletin,1547
1402,46.248,3.267,2022-06-04 18:46:00,FR,2022,troussat,665
1403,47.148,4.626,2022-06-04 18:45:00,FR,2022,Pouilly-en-Auxois,1537
1404,48.664,-2.87,2022-06-04 18:45:00,FR,2022,Saint-Quay-Portrieux,3159
1405,46.219,3.221,2022-06-04 18:43:00,FR,2022,troussat,665
1406,47.284,4.016,2022-06-04 18:42:00,FR,2022,Saulieu,2346
1407,46.184,3.161,2022-06-04 18:39:00,FR,2022,Taxat-Senat,189
1408,46.238,3.153,2022-06-04 18:34:00,FR,2022,Chantelle,1105
1409,46.175,3.11,2022-06-04 18:34:00,FR,2022,Saint-Bonnet-de-Rochefort,717
1410,46.288,3.766,2022-06-04 18:30:00,FR,2022,Le Donjon,1046
1411,45.75,1.933,2022-06-04 18:30:00,FR,2022,Royre-de-Vassivire,578
1412,45.681,1.947,2022-06-04 18:30:00,FR,2022,Royre-de-Vassivire,578
1413,46.152,3.066,2022-06-04 18:30:00,FR,2022,Veauce,38
1414,46.199,3.08,2022-06-04 18:27:00,FR,2022,Bellenaves,985
1415,46.176,3.074,2022-06-04 18:26:00,FR,2022,Veauce,38
1416,46.235,0.905,2022-06-04 18:26:00,FR,2022,Confolens,2720
1417,46.231,3.718,2022-06-04 18:25:00,FR,2022,Droiturier,360
1418,46.156,3.002,2022-06-04 18:22:00,FR,2022,Lalizolle,412
1419,46.158,2.969,2022-06-04 18:20:00,FR,2022,Lalizolle,412
1420,46.232,3.652,2022-06-04 18:15:00,FR,2022,Saint-Prix,801
1421,46.232,3.652,2022-06-04 18:15:00,FR,2022,Saint-Prix,7220
1422,46.182,3.658,2022-06-04 18:15:00,FR,2022,Isserpent,553
1423,46.138,2.929,2022-06-04 18:15:00,FR,2022,chassires,373
1424,46.962,1.183,2022-06-04 18:15:00,FR,2022,cueill,1202
1425,46.987,1.174,2022-06-04 18:15:00,FR,2022,cueill,1202
1426,46.352,1.992,2022-06-04 18:09:00,FR,2022,Boussac,1246
1427,46.951,4.298,2022-06-04 18:01:00,FR,2022,Autun,13205
1428,46.303,2.023,2022-06-04 18:01:00,FR,2022,Boussac,1246
1429,46.241,4.436,2022-06-04 18:00:00,FR,2022,Cours,4366
1430,46.25,2.05,2022-06-04 17:54:00,FR,2022,Sainte-Feyre,2493
1431,46.165,4.346,2022-06-04 17:53:00,FR,2022,Cours,4366
1432,46.132,3.461,2022-06-04 17:52:00,FR,2022,Cusset,12677
1433,46.864,4.243,2022-06-04 17:48:00,FR,2022,Autun,13205
1434,46.208,4.338,2022-06-04 17:47:00,FR,2022,Cours,4366
1435,46.19,4.296,2022-06-04 17:45:00,FR,2022,Charlieu,3714
1436,46.173,4.274,2022-06-04 17:43:00,FR,2022,Charlieu,3714
1437,46.173,4.217,2022-06-04 17:35:00,FR,2022,Charlieu,3714
1438,46.059,2.562,2022-06-04 17:35:00,FR,2022,Mazirat,287
1439,46.119,4.22,2022-06-04 17:33:00,FR,2022,Charlieu,3714
1440,46.159,4.172,2022-06-04 17:30:00,FR,2022,Charlieu,3714
1441,48.433,-3.683,2022-06-04 17:30:00,FR,2022,Plougonven,3432
1442,48.412,-3.626,2022-06-04 17:30:00,FR,2022,Plougonven,3432
1443,45.919,2.341,2022-06-04 17:20:00,FR,2022,Felletin,1547
1444,46.083,3.982,2022-06-04 17:10:00,FR,2022,Riorges,10917
1445,46.052,3.926,2022-06-04 17:00:00,FR,2022,Ambierle,1898
1446,46.138,4.811,2022-06-04 16:45:00,FR,2022,Peyzieux-sur-Sane,676
1447,48.633,-3.3,2022-06-04 16:45:00,FR,2022,Bgard,4810
1448,46.034,3.773,2022-06-04 16:45:00,FR,2022,Lavoine,149
1449,46.019,3.781,2022-06-04 16:45:00,FR,2022,Lavoine,149
1450,46.107,4.781,2022-06-04 16:43:00,FR,2022,Gureins,1487
1451,46.022,3.752,2022-06-04 16:42:00,FR,2022,Lavoine,149
1452,46.029,3.758,2022-06-04 16:42:00,FR,2022,Lavoine,149
1453,46.022,3.743,2022-06-04 16:40:00,FR,2022,Lavoine,149
1454,48.339,-3.642,2022-06-04 16:37:00,FR,2022,Carhaix-Plouguer,7165
1455,46.109,4.744,2022-06-04 16:35:00,FR,2022,Belleville-en-Beaujolais,13336
1456,46.127,4.738,2022-06-04 16:35:00,FR,2022,Belleville-en-Beaujolais,13336
1457,46.017,3.717,2022-06-04 16:35:00,FR,2022,Lavoine,149
1458,46.023,3.721,2022-06-04 16:35:00,FR,2022,Lavoine,149
1459,46.021,3.729,2022-06-04 16:35:00,FR,2022,Lavoine,149
1460,46.053,3.741,2022-06-04 16:33:00,FR,2022,Le Mayet-de-Montagne,1386
1461,46.063,3.744,2022-06-04 16:33:00,FR,2022,Le Mayet-de-Montagne,1386
1462,46.061,3.716,2022-06-04 16:31:00,FR,2022,Le Mayet-de-Montagne,1386
1463,46.029,3.703,2022-06-04 16:30:00,FR,2022,Le Mayet-de-Montagne,1386
1464,46.039,3.712,2022-06-04 16:30:00,FR,2022,Le Mayet-de-Montagne,1386
1465,46.067,3.7,2022-06-04 16:30:00,FR,2022,Le Mayet-de-Montagne,1386
1466,46.037,3.652,2022-06-04 16:28:00,FR,2022,Le Mayet-de-Montagne,1386
1467,46.016,3.671,2022-06-04 16:26:00,FR,2022,Lavoine,149
1468,46.017,3.633,2022-06-04 16:25:00,FR,2022,Le Mayet-de-Montagne,1386
1469,46.032,3.643,2022-06-04 16:25:00,FR,2022,Le Mayet-de-Montagne,1386
1470,46.014,3.659,2022-06-04 16:25:00,FR,2022,Lavoine,149
1471,46.016,3.643,2022-06-04 16:22:00,FR,2022,Le Mayet-de-Montagne,1386
1472,46.062,4.601,2022-06-04 16:20:00,FR,2022,Saint-Georges-de-Reneins,4403
1473,49.668,0.896,2022-06-04 16:20:00,FR,2022,Pavilly,6164
1474,46.019,3.605,2022-06-04 16:20:00,FR,2022,Arronnes,376
1475,46.025,3.616,2022-06-04 16:20:00,FR,2022,Arronnes,376
1476,46.009,3.621,2022-06-04 16:20:00,FR,2022,Arronnes,376
1477,46.005,3.628,2022-06-04 16:20:00,FR,2022,Lavoine,149
1478,46.006,3.642,2022-06-04 16:20:00,FR,2022,Lavoine,149
1479,46.013,3.626,2022-06-04 16:20:00,FR,2022,Le Mayet-de-Montagne,1386
1480,45.933,3.5,2022-06-04 16:15:00,FR,2022,Thiers,11470
1481,49.387,1.098,2022-06-04 16:15:00,FR,2022,Saint-tienne-du-Rouvray,28331
1482,49.649,0.932,2022-06-04 16:15:00,FR,2022,Pavilly,6164
1483,45.959,3.475,2022-06-04 16:10:00,FR,2022,Busset,833
1484,49.611,0.925,2022-06-04 16:10:00,FR,2022,Pavilly,6164
1485,49.454,1.116,2022-06-04 16:08:00,FR,2022,Bihorel,8197
1486,49.568,0.953,2022-06-04 16:05:00,FR,2022,Pavilly,6164
1487,46.061,4.494,2022-06-04 16:02:00,FR,2022,Cours,4366
1488,49.05,1.167,2022-06-04 16:00:00,FR,2022,Gravigny,4016
1489,49.545,0.955,2022-06-04 15:58:00,FR,2022,Barentin,12239
1490,45.973,4.332,2022-06-04 15:43:00,FR,2022,Thizy-les-Bourgs,5944
1491,49.048,1.118,2022-06-04 15:25:00,FR,2022,Aviron,1102
1492,49.026,1.15,2022-06-04 15:18:00,FR,2022,vreux,46869
1493,45.877,4.035,2022-06-04 15:13:00,FR,2022,Villerest,5097
1494,47.562,1.453,2022-06-04 14:27:00,FR,2022,Huisseau-sur-Cosson,2322
1495,48.583,1.883,2022-06-04 14:25:00,FR,2022,Ablis,3509
1496,48.6,1.85,2022-06-04 14:25:00,FR,2022,Rambouillet,27043
1497,48.55,1.867,2022-06-04 14:20:00,FR,2022,Ablis,3509
1498,48.583,1.833,2022-06-04 14:17:00,FR,2022,Ablis,3509
1499,48.567,1.85,2022-06-04 14:16:00,FR,2022,Ablis,3509
1500,48.533,1.85,2022-06-04 14:15:00,FR,2022,Ablis,3509
1501,48.55,1.833,2022-06-04 14:15:00,FR,2022,Ablis,3509
1502,48.517,1.833,2022-06-04 14:14:00,FR,2022,Ablis,3509
1503,48.588,1.817,2022-06-04 14:13:00,FR,2022,Ablis,3509
1504,46.975,0.698,2022-06-04 14:10:00,FR,2022,Descartes,3331
1505,48.533,1.8,2022-06-04 14:10:00,FR,2022,Ablis,3509
1506,48.583,1.783,2022-06-04 14:05:00,FR,2022,pernon,5601
1507,48.561,1.79,2022-06-04 14:02:00,FR,2022,Ablis,3509
1508,47.133,0.05,2022-06-04 13:00:00,FR,2022,Savigny-en-Vron,1560
1509,47.267,0.467,2022-06-04 12:55:00,FR,2022,Azay-le-Rideau,3468
1510,47.285,0.306,2022-06-04 12:43:00,FR,2022,Benais,917
1511,47.283,0.167,2022-06-04 12:35:00,FR,2022,Bourgueil,3808
1512,47.167,0.25,2022-06-04 12:30:00,FR,2022,Chinon,8063
1513,47.233,0.25,2022-06-04 12:30:00,FR,2022,Chinon,8063
1514,47.244,0.11,2022-06-04 12:30:00,FR,2022,Chouz-sur-Loire,2085
1515,47.201,0.145,2022-06-04 12:27:00,FR,2022,Savigny-en-Vron,1560
1516,47.233,-0.021,2022-06-04 12:24:00,FR,2022,Saumur,26154
1517,47.133,0.0,2022-06-04 12:16:00,FR,2022,Savigny-en-Vron,1560
1518,47.183,0.05,2022-06-04 12:15:00,FR,2022,Savigny-en-Vron,1560
1519,47.194,0.048,2022-06-04 12:15:00,FR,2022,Savigny-en-Vron,1560
1520,47.15,-0.05,2022-06-04 12:14:00,FR,2022,Saumur,26154
1521,47.117,-0.017,2022-06-04 12:14:00,FR,2022,Loudun,6702
1522,47.024,-0.128,2022-06-04 12:03:00,FR,2022,Thouars,13917
1523,47.033,-0.114,2022-06-04 12:03:00,FR,2022,Thouars,13917
1524,47.017,-0.149,2022-06-04 12:02:00,FR,2022,Thouars,13917
1525,47.009,-0.133,2022-06-04 12:02:00,FR,2022,Thouars,13917
1526,46.992,-0.126,2022-06-04 12:02:00,FR,2022,Thouars,13917
1527,47.031,-0.147,2022-06-04 12:02:00,FR,2022,Thouars,13917
1528,47.051,-0.138,2022-06-04 12:02:00,FR,2022,Thouars,13917
1529,47.037,-0.165,2022-06-04 12:01:00,FR,2022,Thouars,13917
1530,47.237,0.124,2022-06-04 12:00:00,FR,2022,Chouz-sur-Loire,2085
1531,46.967,-0.217,2022-06-04 12:00:00,FR,2022,Thouars,13917
1532,47.009,-0.157,2022-06-04 12:00:00,FR,2022,Thouars,13917
1533,46.998,-0.142,2022-06-04 12:00:00,FR,2022,Thouars,13917
1534,47.053,-0.162,2022-06-04 12:00:00,FR,2022,Thouars,13917
1535,47.026,-0.171,2022-06-04 11:59:00,FR,2022,Thouars,13917
1536,47.05,-0.183,2022-06-04 11:56:00,FR,2022,Thouars,13917
1537,47.029,-0.191,2022-06-04 11:56:00,FR,2022,Thouars,13917
1538,47.017,-0.183,2022-06-04 11:55:00,FR,2022,Thouars,13917
1539,47.0,-0.183,2022-06-04 11:55:00,FR,2022,Thouars,13917
1540,47.011,-0.211,2022-06-04 11:46:00,FR,2022,Thouars,13917
1541,47.003,-0.217,2022-06-04 11:45:00,FR,2022,Thouars,13917
1542,46.994,-0.238,2022-06-04 11:42:00,FR,2022,Thouars,13917
1543,46.983,-0.25,2022-06-04 11:40:00,FR,2022,Thouars,13917
1544,47.0,-0.259,2022-06-04 11:40:00,FR,2022,Thouars,13917
1545,46.733,-0.717,2022-06-04 10:50:00,FR,2022,Saint-Mesmin,1750
1546,47.387,0.658,2022-06-04 02:20:00,FR,2022,La Riche,10372
1547,47.377,0.599,2022-06-04 02:19:00,FR,2022,La Riche,10372
1548,47.34,0.612,2022-06-04 02:15:00,FR,2022,Ballan-Mir,8083
1549,47.351,0.661,2022-06-04 02:15:00,FR,2022,Jou-ls-Tours,38750
1550,46.301,2.307,2022-06-03 21:20:00,FR,2022,Boussac,1246
1551,46.019,4.761,2022-06-03 20:30:00,FR,2022,Fareins,2339
1552,45.987,4.725,2022-06-03 20:18:00,FR,2022,Villefranche-sur-Sane,36009
1553,43.233,1.576,2022-06-03 19:55:00,FR,2022,Saverdun,4815
1554,45.962,4.466,2022-06-03 19:50:00,FR,2022,Tarare,10572
1555,45.9,4.433,2022-06-03 19:50:00,FR,2022,Tarare,10572
1556,45.803,2.35,2022-06-03 19:30:00,FR,2022,Felletin,1547
1557,45.777,3.089,2022-06-03 19:20:00,FR,2022,Chamalires,17196
1558,43.207,1.23,2022-06-03 19:18:00,FR,2022,Montesquieu-Volvestre,3109
1559,45.785,3.012,2022-06-03 19:15:00,FR,2022,Durtol,2065
1560,45.707,3.172,2022-06-03 19:15:00,FR,2022,Le Cendre,5525
1561,47.412,0.799,2022-06-03 19:12:00,FR,2022,La Ville-aux-Dames,5593
1562,44.15,0.85,2022-06-03 19:04:00,FR,2022,Valence,64431
1563,44.15,0.85,2022-06-03 19:04:00,FR,2022,Valence,5233
1564,45.718,3.018,2022-06-03 19:00:00,FR,2022,Saint-Gens-Champanelle,3791
1565,45.704,3.004,2022-06-03 19:00:00,FR,2022,Saint-Gens-Champanelle,3791
1566,47.061,5.174,2022-06-03 18:59:00,FR,2022,Bonnencontre,435
1567,43.189,1.033,2022-06-03 18:58:00,FR,2022,Martres-Tolosane,2407
1568,43.198,1.012,2022-06-03 18:58:00,FR,2022,Martres-Tolosane,2407
1569,45.662,2.971,2022-06-03 18:55:00,FR,2022,Saint-Gens-Champanelle,3791
1570,43.121,0.988,2022-06-03 18:53:00,FR,2022,Salies-du-Salat,1755
1571,43.176,0.973,2022-06-03 18:47:00,FR,2022,Martres-Tolosane,2407
1572,43.162,0.975,2022-06-03 18:47:00,FR,2022,Martres-Tolosane,2407
1573,43.142,0.93,2022-06-03 18:45:00,FR,2022,Salies-du-Salat,1755
1574,43.633,-0.833,2022-06-03 18:45:00,FR,2022,Pomarez,1579
1575,43.169,0.883,2022-06-03 18:36:00,FR,2022,Salies-du-Salat,1755
1576,45.87,3.608,2022-06-03 18:35:00,FR,2022,La Monnerie-le-Montel,1669
1577,43.136,0.859,2022-06-03 18:32:00,FR,2022,Salies-du-Salat,1755
1578,44.133,0.35,2022-06-03 18:20:00,FR,2022,Condom,6478
1579,46.15,4.6,2022-06-03 18:20:00,FR,2022,Belleville-en-Beaujolais,13336
1580,46.816,4.88,2022-06-03 18:19:00,FR,2022,Chalon-sur-Sane,45094
1581,46.812,4.942,2022-06-03 18:19:00,FR,2022,Saint-Marcel,1221
1582,46.812,4.942,2022-06-03 18:19:00,FR,2022,Saint-Marcel,4412
1583,46.812,4.942,2022-06-03 18:19:00,FR,2022,Saint-Marcel,6188
1584,46.792,4.913,2022-06-03 18:17:00,FR,2022,Saint-Marcel,1221
1585,46.792,4.913,2022-06-03 18:17:00,FR,2022,Saint-Marcel,4412
1586,46.792,4.913,2022-06-03 18:17:00,FR,2022,Saint-Marcel,6188
1587,46.783,4.924,2022-06-03 18:17:00,FR,2022,Saint-Marcel,1221
1588,46.783,4.924,2022-06-03 18:17:00,FR,2022,Saint-Marcel,4412
1589,46.783,4.924,2022-06-03 18:17:00,FR,2022,Saint-Marcel,6188
1590,46.774,4.895,2022-06-03 18:15:00,FR,2022,Saint-Marcel,1221
1591,46.774,4.895,2022-06-03 18:15:00,FR,2022,Saint-Marcel,4412
1592,46.774,4.895,2022-06-03 18:15:00,FR,2022,Saint-Marcel,6188
1593,46.769,4.922,2022-06-03 18:15:00,FR,2022,Saint-Marcel,1221
1594,46.769,4.922,2022-06-03 18:15:00,FR,2022,Saint-Marcel,4412
1595,46.769,4.922,2022-06-03 18:15:00,FR,2022,Saint-Marcel,6188
1596,45.784,3.601,2022-06-03 18:15:00,FR,2022,Courpire,4005
1597,46.788,4.865,2022-06-03 18:13:00,FR,2022,Chalon-sur-Sane,45094
1598,46.749,4.902,2022-06-03 18:11:00,FR,2022,Saint-Marcel,1221
1599,46.749,4.902,2022-06-03 18:11:00,FR,2022,Saint-Marcel,4412
1600,46.749,4.902,2022-06-03 18:11:00,FR,2022,Saint-Marcel,6188
1601,46.769,4.828,2022-06-03 18:10:00,FR,2022,Saint-Rmy,964
1602,46.769,4.828,2022-06-03 18:10:00,FR,2022,Saint-Rmy,6605
1603,46.725,4.862,2022-06-03 18:04:00,FR,2022,Saint-Rmy,964
